CODIGO;NOMBRE CRUCE;TRAMO;SENTIDO;DESDE;HASTA;LATITUD;LONGITUD
1010479;C. GRAN VIA;San Bernardo-Garcia Molinas;San Bernardo;01/02/2021;08/02/2021;40.42177207;-3.708430526
1010480;C. GRAN VIA;San Bernardo-Garcia Molinas;Garcia Molinas;01/02/2021;08/02/2021;40.4218669;-3.708355201
1010611;C. MAYOR;Bailen-Cripta Catedral;Bailen;26/01/2021;02/02/2021;40.41506357;-3.714138983
1010612;C. MAYOR;Bailen-Cripta Catedral;Cripta Catedral;26/01/2021;02/02/2021;40.41511875;-3.714136
1010809;C. SEGOVIA;(Juan Duque)-(Mazarredo);(Mazarredo);26/01/2021;02/02/2021;40.41390503;-3.718837935
1010810;C. SEGOVIA;(Juan Duque)-(Mazarredo);(Juan Duque);26/01/2021;02/02/2021;40.41395802;-3.718837831
1010811;Lateral C. SEGOVIA;(Juan Duque)-(Mazarredo);(Mazarredo);26/01/2021;02/02/2021;40.41377511;-3.718847543
1010812;C. SEGOVIA;Costanilla de San Pedro-Costanilla de San Andres;Costanilla de San Pedro;26/01/2021;02/02/2021;40.41366814;-3.711147582
1010813;C. SEGOVIA;Costanilla de San Pedro-Costanilla de San Andres;Costanilla de San Andres;26/01/2021;02/02/2021;40.41372726;-3.711123935
1010887;Paseo. VIRGEN DEL PUERTO;Ciudad de Plasencia-Plaza de San Vicente;Plaza de San Vicente;01/02/2021;08/02/2021;40.4182071;-3.720286756
1010888;Paseo. VIRGEN DEL PUERTO;Ciudad de Plasencia-Plaza de San Vicente;Ciudad de Plasencia;01/02/2021;08/02/2021;40.41821445;-3.720406718
1010999;C. CARRERA DE SAN FRANCISCO;San Isidro Labrador-Aguas;San Isidro Labrador;23/02/2021;02/03/2021;40.41095906;-3.712786042
1011000;C. CARRERA DE SAN FRANCISCO;San Isidro Labrador-Aguas;Las Aguas;23/02/2021;02/03/2021;40.41090314;-3.712760368
1011003;C. CUESTA DE LA VEGA;Paseo Ciudad de Plasencia-Segovia;Paseo Ciudad de Plasencia;25/02/2021;04/03/2021;40.41453014;-3.716757329
1011004;C. CUESTA DE LA VEGA;Paseo Ciudad de Plasencia-Segovia;Segovia;10/02/2021;17/02/2021;40.41454;-3.71688
1011208;C. BAILEN;Mayor-Moreria;Moreria;23/02/2021;02/03/2021;40.41447;-3.713640008
1011209; C. BAILEN;Mayor-Moreria;Mayor;23/02/2021;02/03/2021;40.41447269;-3.713542095
1011430;C. MAYOR;Bailen-Almudena;Bailen;10/02/2021;17/02/2021;40.41513657;-3.713108386
1011431; C. MAYOR;Bailen-Almudena;Almudena;10/02/2021;17/02/2021;40.41504417;-3.713095448
1011532;C. SAN BERNARDO;Plaza de Santo Domingo-Gran Via;Gran Via;10/02/2021;17/02/2021;40.42118612;-3.708061308
1011533;C. SAN BERNARDO;Plaza de Santo Domingo-Gran Via;Plaza de Santo Domingo;18/02/2021;25/02/2021;40.42119906;-3.708100391
1011564;Pte. SEGOVIA;Virgen del Puerto-Puente Segovia (Gt.);Puente Segovia (Gt.);18/02/2021;25/02/2021;40.41408704;-3.722937856
1012054;C. GRAN VIA DE SAN FRANCISCO;Carrera de San Francisco-Rosario;Rosario;23/02/2021;02/03/2021;40.40990196;-3.713809911
1012374;C. PRETIL DE LOS CONSEJOS;Plaza de la Cruz Verde-Sacramento;Sacramento;25/02/2021;04/03/2021;40.41449807;-3.712463731
1012446;Lateral C. RONDA DE SEGOVIA;Glorieta Puerta de Toledo-Aguila;Aguila;04/03/2021;11/03/2021;40.40747636;-3.713461101
1012447;Lateral C. RONDA DE SEGOVIA;Glorieta Puerta de Toledo-Aguila;Glorieta Puerta de Toledo;04/03/2021;11/03/2021;40.40727782;-3.713603579
1012474;C. SACRAMENTO;Duque de Najera-Traviesa;Traviesa;12/03/2021;18/03/2021;40.41469154;-3.711424646
1012562;C. TINTOREROS, LOS;Puerta Cerrada (Pz.)-Toledo;Puerta Cerrada (Pz.);04/03/2021;11/03/2021;40.41362502;-3.708012843
1012770;Calle CAVA BAJA;Plaza Humilladero-Almendro;Plaza Humilladero;04/03/2021;11/03/2021;40.41199897;-3.70999781
1012806;Calle COSTANILLA DE LOS ANGELES;Caos del Peral-Plaza Santo Domingo;Plaza Santo Domingo;04/03/2021;11/03/2021;40.41935049;-3.708075055
1013144;Calle LEGANITOS;Torija-Doctor Carracido;Torija;12/03/2021;18/03/2021;40.42103674;-3.709651167
1020149; C. ATOCHA;Alameda-San Pedro;Alameda;12/03/2021;19/03/2021;40.41004209;-3.694420448
1020150; C. ATOCHA;Alameda-San Pedro;San Pedro;12/03/2021;19/03/2021;40.41008744;-3.694379737
1020308;C. CONCEPCION JERONIMA;Santo Tomas-Salvador;Salvador;12/03/2021;18/03/2021;40.41397722;-3.70572524
1021058; C. MAGDALENA. LA;Olivar-Ave Maria;Ave Maria;22/03/2021;29/03/2021;40.41241;-3.70095
1022450;Lateral C. RONDA DE TOLEDO;Plaza Campillo del Mundo Nuevo-Glorieta Puerta Toledo;Plaza Campillo del Mundo Nuevo;22/03/2021;29/03/2021;40.40625721;-3.709965178
1022451;Lateral C. RONDA DE TOLEDO;Plaza Campillo del Mundo Nuevo-Glorieta Puerta Toledo;Glorieta Puerta Toledo;22/03/2021;29/03/2021;40.40642425;-3.709975891
1022452;Tunel C. RONDA DE TOLEDO;Plaza Campillo del Mundo Nuevo-Glorieta Puerta de Toledo;Plaza Campillo del Mundo Nuevo;22/03/2021;29/03/2021;40.40630687;-3.709960162
1022453;Tunel C. RONDA DE TOLEDO;Plaza Campillo del Mundo Nuevo-Glorieta Puerta de Toledo;Glorieta Puerta de Toledo;22/03/2021;29/03/2021;40.40636695;-3.709960842
1022509; C. SANTA ISABEL;Tres Peces-Buenavista;Buenavista;05/04/2021;12/04/2021;40.4109285;-3.698347874
1022692; C. ARGUMOSA;Ronda de Atocha-Hospital;Ronda de Atocha;05/04/2021;12/04/2021;40.40737799;-3.696051567
1022693; C. ARGUMOSA;Ronda de Atocha-Hospital;Hospital;05/04/2021;12/04/2021;40.40741439;-3.696031348
1023231; C. OLIVAR;San Carlos-Plaza de Lavapis;Plaza de Lavapis;05/04/2021;12/04/2021;40.4096427;-3.701478918
1023374; C. VALENCIA;Ronda de Atocha-Doctor Fourquet;Doctor Fourquet;05/04/2021;12/04/2021;40.40635798;-3.699662386
1030107; C. ALCALA;Cedaceros-Sevilla;Sevilla;05/04/2021;12/04/2021;40.41804;-3.69877
1030478; C. GRAN VIA;Caballero de Gracia-Victor Hugo;Victor Hugo;14/04/2021;21/04/2021;40.41929997;-3.698005387
1030725; Pa PRADO;Gobernador-Plaza Plateria Martinez;Gobernador;14/04/2021;21/04/2021;40.41228135;-3.693294645
1030726; Pa PRADO;Plaza de Murillo-Felipe IV;Felipe IV;14/04/2021;21/04/2021;40.41291;-3.692956065
1031148; C. ALCALA;Barquillo-Cibeles (Pz.);Cibeles (Pz.);14/04/2021;21/04/2021;40.41900546;-3.695011409
1031151; C. ALCALA;Cedaceros-Gran Via;Cedaceros;14/04/2021;21/04/2021;40.41833904;-3.698149014
1031152; C. ALCALA;Cedaceros-Gran Via;Gran Via;14/04/2021;21/04/2021;40.41824473;-3.698093552
1031816; C. CARRERA DE SAN JERONIMO;Echegaray-Ventura de la Vega;Ventura de la Vega;21/04/2021;28/04/2021;40.41657489;-3.699223324
1032808; C. CRUZ;Espoz y Mina-Victoria;Victoria;21/04/2021;28/04/2021;40.41533333;-3.702066667
1040467; C. GENOVA;Argensola-General Castanos;General Castanos;21/04/2021;28/04/2021;40.42659898;-3.693732017
1040766;Lateral Pa RECOLETOS;Recoletos-Villanueva;Villanueva;21/04/2021;28/04/2021;40.42281755;-3.691084154
1040767;Lateral Pa RECOLETOS;Recoletos-Villanueva;Recoletos;21/04/2021;28/04/2021;40.42304324;-3.69187764
1040775; C. SAGASTA;Larra-Mejia Lequerica;Larra;21/04/2021;28/04/2021;40.42863982;-3.700180323
1040776;C. SAGASTA;Larra-Mejia Lequerica;Mejia Lequerica;11/05/2021;18/05/2021;40.42853177;-3.700205161
1040984; C. BARBARA DE BRAGANZA;Marques de la Ensenada-Recoletos (P.);Recoletos (P.);11/05/2021;18/05/2021;40.42334149;-3.692277735
1040985; C. BARBARA DE BRAGANZA;Marques de la Ensenada-Recoletos (P.);Marques de la Ensenada;11/05/2021;18/05/2021;40.4234012;-3.692258506
1041027;C. FERNANDO VI;Argensola-Campoamor;Campoamor;11/05/2021;18/05/2021;40.42488;-3.6958
1041147;C. ALCALA;Barquillo-Cibeles (Pz.);Barquillo;11/05/2021;18/05/2021;40.41913037;-3.695023789
1041528;C. SAGASTA;Manuel Silvela-Covarrubias;Manuel Silvela;11/05/2021;18/05/2021;40.42811663;-3.697696405
1041529;C. SAGASTA;Manuel Silvela-Covarrubias;Covarrubias;24/05/2021;31/05/2021;40.42801727;-3.697743399
1041636; C. ALMIRANTE;Barquillo-Conde de Xiquena;Conde de Xiquena;24/05/2021;31/05/2021;40.42252145;-3.695229142
1042085;C. HORTALEZA;Fernando VI-Santa Barbara (Pz.);Santa Barbara (Pz.);18/05/2021;25/05/2021;40.42633838;-3.696896331
1042086;C. HORTALEZA;Fernando VI-Santa Barbara (Pz.);Fernando VI;18/05/2021;25/05/2021;40.42637103;-3.697005478
1042495;C. SAN MATEO;Travesia de San Mateo-San Lorenzo;San Lorenzo;18/05/2021;25/05/2021;40.42554788;-3.699313706
1042953;Calle FARMACIA;Hortaleza-Fuencarral;Fuencarral;24/05/2021;31/05/2021;40.42383026;-3.699113384
1043077;Calle INFANTAS;Cuesta de Capuchinos-Hortaleza;Hortaleza;24/05/2021;31/05/2021;40.4208815;-3.700233877
1043148; C. LIBERTAD;Infantas-San Marcos;San Marcos;24/05/2021;31/05/2021;40.42107957;-3.697373629
1043294;Calle REINA;Clavel-Victor Hugo;Victor Hugo;24/05/2021;31/05/2021;40.42000386;-3.699029002
1043315;Calle SAN MARCOS;Barbieri-Libertad;Libertad;01/06/2021;08/06/2021;40.42126009;-3.697803369
1050073;Lateral C. ALBERTO AGUILERA;Guzman el Bueno-Blasco de Garay;Guzman el Bueno;01/06/2021;08/06/2021;40.4303173;-3.712582955
1050441;C. FUENCARRAL;San Mateo-Santa Brigida;Santa Brigida;01/06/2021;08/06/2021;40.42472564;-3.70071691
1050729;Lateral C. PRINCESA;Quintana-Buen Suceso;Buen Suceso;02/06/2021;09/06/2021;40.42963559;-3.715454425
1050731;C. PRINCESA;Reyes-San Leonardo;San Leonardo;02/06/2021;09/06/2021;40.42391023;-3.711272188
2010614; Pa MELANCOLICOS;San Epifanio-Alejandro Dumas;San Epifanio;22/04/2021;29/04/2021;40.40149;-3.71777
2010890;Tnel Paseo. VIRGEN DEL PUERTO;Fosforo-Moreno Nieto;Moreno Nieto;22/04/2021;29/04/2021;40.41099029;-3.721298714
2010891;Lateral Paseo. VIRGEN DEL PUERTO;Fosforo-Moreno Nieto;Moreno Nieto;22/04/2021;29/04/2021;40.41094998;-3.721287428
2011563; Pte. SEGOVIA;Virgen del Puerto-Puente Segovia (Gt.);Virgen del Puerto;22/04/2021;29/04/2021;40.41395802;-3.72293191
2011578;C. TOLEDO;Santa Casilda-Glorieta Puerta de Toledo;Santa Casilda;11/05/2021;18/05/2021;40.40584345;-3.712187788
2011630;C. ALEJANDRO DUMAS;Piramides (Gt.)-Paseo de Los Melancolicos;Paseo de Los Melancolicos;11/05/2021;18/05/2021;40.40114143;-3.716321033
2012359; Pa PONTONES;Glorieta Puerta de Toledo-Santa Casilda;Santa Casilda;11/05/2021;18/05/2021;40.40629362;-3.712913277
2012362;Paseo. PONTONES;Santa Casilda-Plaza Francisco Morano;Santa Casilda;24/05/2021;31/05/2021;40.40498883;-3.715168101
2012363;Paseo. PONTONES;Santa Casilda-Plaza Francisco Morano;Plaza Francisco Morano;24/05/2021;30/05/2021;40.40503871;-3.715222055
2012502;C. SANTA CASILDA;Paseo de Pontones-Toledo;Toledo;24/05/2021;31/05/2021;40.40501585;-3.71354765
2013305;Calle RONDA SEGOVIA;Moreno Nieto-Manzanares;Manzanares;18/05/2021;25/05/2021;40.41245756;-3.717536949
2013306;Calle RONDA SEGOVIA;Moreno Nieto-Manzanares;Moreno Nieto;18/05/2021;25/05/2021;40.41249317;-3.717598445
2020381;C. EMBAJADORES;Labrador-Sebastian el Cano;Sebastian el Cano;18/05/2021;25/05/2021;40.40302925;-3.700898082
2020382;C. EMBAJADORES;Labrador-Sebastian el Cano;Labrador;18/05/2021;25/05/2021;40.40294859;-3.701007211
2020796;Paseo SANTA MARIA DE LA CABEZA;General Palanca-Glorieta Santa M de la Cabeza;General Palanca;18/05/2021;25/05/2021;40.40035846;-3.69996
2020971;Paseo ACACIAS, LAS;Ortega y Munilla (Pz.)-Piramides (Gt.);Piramides (Gt.);18/05/2021;25/05/2021;40.40119267;-3.713354651
2020972;Paseo ACACIAS, LAS;Ortega y Munilla (Pz.)-Piramides (Gt.);Ortega y Munilla (Pz.);18/05/2021;25/05/2021;40.40111733;-3.713308554
2021020;Paseo. ESPERANZA, LA;Banos de Montemayor-Paseo Santa Maria de la Cabeza;Paseo Santa Maria de la Cabeza;18/05/2021;25/05/2021;40.39821;-3.70256
2021021;Paseo. ESPERANZA, LA;Banos de Montemayor-Paseo Santa Maria de la Cabeza;Banos de Montemayor;18/05/2021;25/05/2021;40.39824744;-3.702426974
2021101;C. RIBERA DE CURTIDORES;Cigarreras-Ronda de Toledo;Cigarreras;18/05/2021;25/05/2021;40.40547344;-3.707130271
2021102;C. RIBERA DE CURTIDORES;Cigarreras-Ronda de Toledo;Ronda de Toledo;18/05/2021;25/05/2021;40.40549105;-3.706998054
2021129;Lateral Paseo. YESERIAS;Piramides (Gt)-Carmen Cobena;Piramides (Gt);18/05/2021;25/05/2021;40.40056967;-3.713539786
2021577;C. TOLEDO;Santa Casilda-Glorieta Puerta de Toledo;Glorieta Puerta de Toledo;18/05/2021;25/05/2021;40.4057993;-3.711954697
2021849;C. CIGARRERAS;Gasometro-Ribera de Curtidores;Ribera de Curtidores;19/05/2021;26/05/2021;40.40499721;-3.707542561
2021850; C. CIGARRERAS;Gasometro-Ribera de Curtidores;Gasometro;28/04/2021;05/05/2021;40.40503;-3.707531962
2021862; C. CONCEJAL BENITO MARTIN LOZANO;Paseo de los Olmos-Gasometro;Paseo de los Olmos;28/04/2021;05/05/2021;40.40513711;-3.70900323
2021863; C. CONCEJAL BENITO MARTIN LOZANO;Paseo de los Olmos-Gasometro;Gasometro;28/04/2021;05/05/2021;40.40509429;-3.709019768
2022027; C. GASOMETRO;Concejal Benito Martin Lozano-Ronde de Toledo;Concejal Benito Martin Lozano;28/04/2021;05/05/2021;40.40544631;-3.708324161
2022028; C. GASOMETRO;Concejal Benito Martin Lozano-Ronde de Toledo;Ronde de Toledo;28/04/2021;05/05/2021;40.40544631;-3.7082662
2022117; C. ISIDORO DE SEVILLA;Toledo-Paseo de los Olmos;Toledo;28/04/2021;05/05/2021;40.40463831;-3.712069146
2022118; C. ISIDORO DE SEVILLA;Toledo-Paseo de los Olmos;Paseo de los Olmos;28/04/2021;05/05/2021;40.40459224;-3.712093345
2022370;Puente C. PRAGA;Paseo de la Chopera-Antonio Lopez;Antonio Lopez;28/04/2021;05/05/2021;40.39607835;-3.703825156
2022371;Puente C. PRAGA;Paseo de la Chopera-Antonio Lopez;Paseo de la Chopera;28/04/2021;05/05/2021;40.39604563;-3.703714844
2022943; Pa ESPERANZA;Gargantilla-Baos de Montemayor;Gargantilla;28/04/2021;05/05/2021;40.39903399;-3.702989435
2022944; Pa ESPERANZA;Gargantilla-Baos de Montemayor;Baos de Montemayor;28/04/2021;05/05/2021;40.39896848;-3.703083992
2030298; Pa CHOPERA;Fernando Poo-Plaza General Maroto;Fernando Poo;28/04/2021;05/05/2021;40.39417763;-3.699248709
2030299; Pa CHOPERA;Fernando Poo-Plaza General Maroto;Plaza General Maroto;28/04/2021;05/05/2021;40.39412735;-3.699298233
2030346;Carril Bus Pa DELICIAS;Enrique Trompeta-Plaza de Legazpi;Plaza de Legazpi;28/04/2021;05/05/2021;40.39206907;-3.695040933
2030348; Paseo. DELICIAS;Plaza Beata M Ana de Jesus-Plaza Legazpi;Plaza Legazpi;28/04/2021;05/05/2021;40.39235904;-3.694839589
2030797; Paseo SANTA MARIA DE LA CABEZA;General Palanca-Glorieta Santa M? de la Cabeza;Glorieta Santa M? de la Cabeza;28/04/2021;05/05/2021;40.40027308;-3.699860769
2031552; Pa SANTA MARIA DE LA CABEZA;Torres Miranda-Caceres;Torres Miranda;28/04/2021;05/05/2021;40.39866035;-3.701407755
2031553; Pa SANTA MARIA DE LA CABEZA;Torres Miranda-Caceres;Caceres;28/04/2021;05/05/2021;40.39863933;-3.701312197
2040375;Lateral C. EMBAJADORES;Avenida del Planetario-M-30;Avenida del Planetario;28/04/2021;05/05/2021;40.38435204;-3.687709371
2040376;Lateral C. EMBAJADORES;Avenida del Planetario-M-30;M-30;28/04/2021;05/05/2021;40.38424236;-3.687878004
2040377;Tunel C. EMBAJADORES;Avenida del Planetario-M-30;M-30;28/04/2021;05/05/2021;40.38425745;-3.687819424
2040378;Tunel C. EMBAJADORES;Avenida del Planetario-M-30;Avenida del Planetario;28/04/2021;05/05/2021;40.38430248;-3.687752698
2040386;Tunel C. EMBAJADORES;Manuel Aleixandre-Rodio;Manuel Aleixandre;28/04/2021;05/05/2021;40.39064;-3.69256
2040387;Lateral C. EMBAJADORES;Manuel Aleixandre-Rodio;Manuel Aleixandre;28/04/2021;05/05/2021;40.39066161;-3.692501779
2040388;Lateral C. EMBAJADORES;Manuel Aleixandre-Rodio;Rodio;28/04/2021;05/05/2021;40.39060486;-3.69264462
2040699;  PLANETARIO;Meneses-Embajadores;Embajadores;28/04/2021;05/05/2021;40.38731335;-3.689481226
2040953; Pte. Puente Andaluca;Legazpi(Pz.)-Cadiz (Gt.);Cadiz (Gt.);28/04/2021;05/05/2021;40.38949798;-3.697612864
2040954; Pte. Puente Andaluca;Legazpi(Pz.)-Cadiz (Gt.);Legazpi(Pz.);28/04/2021;05/05/2021;40.38943241;-3.697565716
2041329; C. EMBAJADORES;M30-Puerto Serrano;Puerto Serrano;28/04/2021;05/05/2021;40.38499531;-3.68829142
2041330; C. EMBAJADORES;M30-Puerto Serrano;M30;28/04/2021;05/05/2021;40.38491266;-3.688416264
2042229; C. MENESES;AV DEL PLANETARIO-CALLE ARIEL;CALLE ARIEL;28/04/2021;05/05/2021;40.39285191;-3.682060568
2042230; C. MENESES;AV DEL PLANETARIO-CALLE ARIEL;AV DEL PLANETARIO;28/04/2021;05/05/2021;40.39287144;-3.682011095
2042240; Pa MOLINO;Legazpi (Pz.)-Italia (Pz.);Legazpi (Pz.);29/04/2021;06/05/2021;40.39072961;-3.694192812
2042241; Pa MOLINO;Legazpi (Pz.)-Italia (Pz.);Italia (Pz.);29/04/2021;06/05/2021;40.39064788;-3.694263233
2042735; C. BRONCE;nice-Rodio;nice;29/04/2021;06/05/2021;40.39216904;-3.688263174
2042736; C. BRONCE;nice-Rodio;Rodio;29/04/2021;06/05/2021;40.39215529;-3.688303375
2050345; Paseo. DELICIAS;Enrique Trompeta-Plaza Legazpi;Plaza Beata M Ana de Jesus;29/04/2021;06/05/2021;40.3919641;-3.694929501
2050349; Pa DELICIAS;Tomas Breton-Caceres;Caceres;29/04/2021;06/05/2021;40.39786;-3.69422
2050379; C. EMBAJADORES;General Palanca-Caceres;Caceres;29/04/2021;06/05/2021;40.39922792;-3.698269438
2050380; C. EMBAJADORES;General Palanca-Caceres;General Palanca;29/04/2021;06/05/2021;40.39928474;-3.698167973
2050697;  PLANETARIO;Eros-Meneses;Meneses;29/04/2021;06/05/2021;40.39402374;-3.682232129
2050698;  PLANETARIO;Eros-Meneses;Mendez Alvaro;29/04/2021;06/05/2021;40.39396419;-3.682183742
2051435; C. MENDEZ ALVARO;Avenida del Planetario-Pedro Bosch;Avenida del Planetario;29/04/2021;06/05/2021;40.39528539;-3.680054132
2051437; C. MENDEZ ALVARO;Comercio-Ramirez de Prado;Ramirez de Prado;29/04/2021;06/05/2021;40.39966349;-3.684989314
2051438; C. MENDEZ ALVARO;Sabal-Oriana;Oriana;29/04/2021;06/05/2021;40.3964552;-3.681328888
2051910; C. de la Batalla del Salado;GENERAL PALANCA-FERROCARRIL;GENERAL PALANCA;29/04/2021;06/05/2021;40.39975;-3.6963
2052292; C. ORIANA;C DEL MEZQUITE-C MENEDEZ ALVARO;C DEL MEZQUITE;29/04/2021;06/05/2021;40.39748;-3.68288
2052293; C. ORIANA;C DEL MEZQUITE-C MENEDEZ ALVARO;C MENEDEZ ALVARO;29/04/2021;06/05/2021;40.39752576;-3.682692704
2053367; C. TOMAS BRETON;Patio de Servicio-Travesa Plomo;Patio de Servicio;29/04/2021;06/05/2021;40.39510673;-3.689703664
2053368; C. TOMAS BRETON;Patio de Servicio-Travesa Plomo;Travesa Plomo;29/04/2021;06/05/2021;40.39507981;-3.689734617
2060347; Pa DELICIAS;Murcia-Tortosa;Tortosa;29/04/2021;06/05/2021;40.40540826;-3.693418004
2060798;Tunel Pa SANTA MARIA DE LA CABEZA;Murcia-Glorieta Emperador Carlos V;Murcia;29/04/2021;06/05/2021;40.40591923;-3.69476
2060799;Lateral izq. Pa SANTA MARIA DE LA CABEZA;Murcia-Glorieta Emperador Carlos V;Murcia;29/04/2021;06/05/2021;40.40613231;-3.694489231
2060800;Lateral der. Paseo. SANTA MARIA DE LA CABEZA;Murcia-Glorieta Emperador Carlos V;Murcia;29/04/2021;06/05/2021;40.40597529;-3.694860062
2060979; C. ANCORA;General Lacy-Rafael de Riego;Rafael de Riego;29/04/2021;06/05/2021;40.40293051;-3.691935711
2061029; C. FERROCARRIL;Santa Maria de la Cabeza (Gt.)-Batalla del Salado;Batalla del Salado;29/04/2021;06/05/2021;40.40098;-3.69768
2061550; Pa SANTA MARIA DE LA CABEZA;Batalla del Salado-Delicias;Delicias;29/04/2021;06/05/2021;40.40453031;-3.696058724
2061757; C. BUSTAMANTE;General Lacy-Rafael de Riego;General Lacy;29/04/2021;06/05/2021;40.40076799;-3.691856791
2062048; C. Gral. Lacy;CANARIAS-ANCORA;ANCORA;29/04/2021;06/05/2021;40.40202285;-3.69083
2062049; C. Gral. Lacy;CANARIAS-ANCORA;CANARIAS;29/04/2021;06/05/2021;40.40202822;-3.69090059
2062315; C. PALOS DE LA FRONTERA;Las Delicias (P)-Batalla del Salado;Batalla del Salado;29/04/2021;06/05/2021;40.40306325;-3.694453549
2062456; C. RONDA DE VALENCIA;Bernardino Obregon-Fray Luis de Leon;Bernardino Obregon;29/04/2021;06/05/2021;40.40572141;-3.700310615
2062457; C. RONDA DE VALENCIA;Bernardino Obregon-Fray Luis de Leon;Fray Luis de Leon;29/04/2021;06/05/2021;40.40561764;-3.70028013
2070512;Lateral Pa INFANTA ISABEL;Glorieta Emperador Carlos V-Alfonso XII;Alfonso XII;29/04/2021;06/05/2021;40.40762529;-3.690317059
2070615; C. MENDEZ ALVARO;Canarias-Ancora;Ancora;29/04/2021;06/05/2021;40.40179013;-3.687038903
2070616;Lateral C. MENDEZ ALVARO;Canarias-Ancora;Ancora;29/04/2021;06/05/2021;40.40168219;-3.687188097
2070617; C. MENDEZ ALVARO;Oriana-Alpedrete;Alpedrete;29/04/2021;06/05/2021;40.39828523;-3.683130452
2070618; C. MENDEZ ALVARO;Tortosa-Murcia;Tortosa;29/04/2021;06/05/2021;40.40553;-3.69113
2071434; C. MENDEZ ALVARO;Avenida del Planetario-Pedro Bosch;Pedro Bosch;29/04/2021;06/05/2021;40.39539299;-3.679899228
2071436; C. MENDEZ ALVARO;Comercio-Ramirez de Prado;Comercio;29/04/2021;06/05/2021;40.39976903;-3.684817948
2072642; C. ACANTO;Retama-Kentia;Kentia;29/04/2021;06/05/2021;40.39574126;-3.67454954
2073234; C. OMBU;Kentia-Retama;Retama;29/04/2021;06/05/2021;40.39451804;-3.676498492
3010300;Av. CIUDAD DE BARCELONA;Narciso Serra-Juan de Urbieta;Narciso Serra;27/05/2021;03/06/2021;40.4037226;-3.679369935
3010301;Av. CIUDAD DE BARCELONA;Narciso Serra-Juan de Urbieta;Juan de Urbieta;27/05/2021;03/06/2021;40.40359959;-3.679449678
3010623;Av. MENENDEZ PELAYO;Valderribas-Granada;Granada;27/05/2021;03/06/2021;40.40579355;-3.679971939
3010624;Av. MENENDEZ PELAYO;Valderribas-Granada;Valderribas;27/05/2021;03/06/2021;40.40576405;-3.679913551
3010685; C. PEDRO BOSCH;Puente Pedro Bosch-Mendez Alvaro;Mendez Alvaro;27/05/2021;03/06/2021;40.39961189;-3.676336294
3010687;Lateral C. PEDRO BOSCH;Puente Pedro Bosch-Mendez Alvaro;Mendez Alvaro;27/05/2021;03/06/2021;40.39964909;-3.676400907
3011287;Av. CIUDAD DE BARCELONA;Gutenberg-Avenida Menendez Pelayo;Avenida Menendez Pelayo;27/05/2021;03/06/2021;40.40439068;-3.681460923
3011288;Av. CIUDAD DE BARCELONA;Gutenberg-Avenida Menendez Pelayo;Gutenberg;27/05/2021;03/06/2021;40.40453534;-3.681365943
3011319;C. DOCTOR ESQUERDO;Plaza Conde Casal-Cavanilles;Plaza Conde Casal;02/06/2021;09/06/2021;40.40515487;-3.671167161
3011320;C. DOCTOR ESQUERDO;Plaza Conde Casal-Cavanilles;Cavanilles;02/06/2021;09/06/2021;40.40525468;-3.671328564
3011323;Lateral C. DOCTOR ESQUERDO;Valderribas-Granada;Valderribas;20/05/2021;27/05/2021;40.40264264;-3.673373349
3011324;Lateral C. DOCTOR ESQUERDO;Valderribas-Granada;Granada;20/05/2021;27/05/2021;40.40275024;-3.673631308
3011838; C. CAVANILLES;Juan de Urbieta-Abtao;Abtao;20/05/2021;27/05/2021;40.40591178;-3.675706122
3011839; C. CAVANILLES;Juan de Urbieta-Abtao;Juan de Urbieta;20/05/2021;27/05/2021;40.40596395;-3.675668035
3020360;Puente C. DOCTOR ESQUERDO;Granada-Avenida Ciudad de Barcelona;Avenida Ciudad de Barcelona;20/05/2021;27/05/2021;40.40212971;-3.674076106
3020361;Puente C. DOCTOR ESQUERDO;Granada-Avenida Ciudad de Barcelona;Granada;20/05/2021;27/05/2021;40.40208521;-3.674005672
3020362;Lateral C. DOCTOR ESQUERDO;Granada-Avenida Ciudad de Barcelona;Granada;20/05/2021;27/05/2021;40.40203201;-3.673926106
3020363;Lateral C. DOCTOR ESQUERDO;Granada-Avenida Ciudad de Barcelona;Avenida Ciudad de Barcelona;20/05/2021;27/05/2021;40.40216972;-3.674161475
3020684; C. PEDRO BOSCH;Puente Pedro Bosch-Mendez Alvaro;Puente Pedro Bosch;20/05/2021;27/05/2021;40.39956413;-3.676267832
3020686;Lateral C. PEDRO BOSCH;Puente Pedro Bosch-Mendez Alvaro;Puente Pedro Bosch;20/05/2021;27/05/2021;40.3995328;-3.676197345
3020955;  Avda. Ciudad de Barcelona;Cafeto-Seco;Seco;20/05/2021;27/05/2021;40.39968294;-3.671969334
3020956;  Avda. Ciudad de Barcelona;Cafeto-Seco;Cafeto;20/05/2021;27/05/2021;40.39975904;-3.671903161
3021845; C. CERRO NEGRO;Gandia-Jativa;Gandia;20/05/2021;27/05/2021;40.39761811;-3.670778246
3021846; C. CERRO NEGRO;Gandia-Jativa;Jativa;20/05/2021;27/05/2021;40.39763786;-3.670814356
3022580;C. VALDERRIBAS;Adelfas-Pajaritos;Pajaritos;02/06/2021;09/06/2021;40.40269209;-3.671971361
3023194;Calle MESEJOS;Avenida Ciudad de Barcelona-Trueba;Avenida Ciudad de Barcelona;02/06/2021;09/06/2021;40.39917056;-3.670098001
3030656;C. O'DONNELL;Doctor Esquerdo-Puente M-30;Puente M-30;02/06/2021;09/06/2021;40.42058729;-3.667036915
3030658;Tunel C. O'DONNELL;Doctor Esquerdo-Puente M-30;Puente M-30;02/06/2021;09/06/2021;40.42066123;-3.667017719
3030659;Lateral C. O'DONNELL;Doctor Esquerdo-Puente M-30;Puente M-30;02/06/2021;09/06/2021;40.4204548;-3.667093865
3031022;C. ESTRELLA POLAR;Pez Austral-Sirio;Sirio;02/06/2021;09/06/2021;40.41105156;-3.665194459
3031023;C. ESTRELLA POLAR;Pez Austral-Sirio;Pez Austral;02/06/2021;09/06/2021;40.41115725;-3.66518
3031054; C. LOS ASTROS;Cruz del Sur-Estrella Polar;Cruz del Sur;03/06/2021;10/06/2021;40.41128142;-3.667995492
3031994;Pte. ESTRELLA;Estrella Polar-Camino de Los Vinateros;Estrella Polar;03/06/2021;10/06/2021;40.41099632;-3.662923162
3031995;Pte. ESTRELLA;Estrella Polar-Camino de Los Vinateros;Los Vinateros;03/06/2021;10/06/2021;40.4109155;-3.662928972
3032550; C. SIRIO;Estrella Polar-Pez Volador;Pez Volador;03/06/2021;10/06/2021;40.41243237;-3.662951436
3032551;C. SIRIO;Estrella Polar-Pez Volador;Estrella Polar;03/06/2021;10/06/2021;40.41245855;-3.663001423
3033122;Calle JUAN ESPLANDIU;Juan Esplandi-Marqus de Lozoya;Marqus de Lozoya;03/06/2021;10/06/2021;40.417;-3.66246
3033181;Calle MARQUES DE LOZOYA;Juan Esplandi-Marqus de Lozoya;Marqus de Lozoya;03/06/2021;10/06/2021;40.41765814;-3.664166263
3040001; C. ALCALDE SAINZ DE BARANDA;Antonio Arias-Doctor Esquerdo;Antonio Arias;03/06/2021;10/06/2021;40.41672814;-3.671346611
3040002;C. ALCALDE SAINZ DE BARANDA;Avenida Menendez y Pelayo-Narvaez;Avenida Menendez y Pelayo;03/06/2021;10/06/2021;40.41704777;-3.676636839
3040003;C. ALCALDE SAINZ DE BARANDA;Avenida Menendez y Pelayo-Narvaez;Narvaez;03/06/2021;10/06/2021;40.41687983;-3.67664452
3050510;Tunel Pa INFANTA ISABEL;Glorieta Emperador Carlos V-Alfonso XII;Alfonso XII;27/05/2021;03/06/2021;40.40824176;-3.690945882
3050511;Tunel Pa INFANTA ISABEL;Glorieta Emperador Carlos V-Alfonso XII;Glorieta Emperador Carlos V;27/05/2021;03/06/2021;40.40832412;-3.69088
3050619;  MENENDEZ PELAYO;Alcalde Sainz de Baranda-Ibiza;Alcalde Sainz de Baranda;27/05/2021;03/06/2021;40.41760974;-3.67857725
3050621;  MENENDEZ PELAYO;Amado Nervo-Conde de Cartagena;Amado Nervo;27/05/2021;03/06/2021;40.41003264;-3.67704529
3050654;Tunel C. O DONNEL;Alcala-Menendez Pelayo;Menendez Pelayo;27/05/2021;03/06/2021;40.4210483;-3.683298226
3050722; Pa PRADO;Cibeles (Pz.)-Los Madrazo;Cibeles (Pz.);27/05/2021;03/06/2021;40.41779561;-3.693285871
3050723; Pa PRADO;Cibeles (Pz.)-Los Madrazo;Los Madrazo;27/05/2021;03/06/2021;40.41790516;-3.694085871
3050724;Lateral Pa PRADO;Cibeles (Pz.)-Los Madrazo;Cibeles (Pz.);27/05/2021;03/06/2021;40.41773181;-3.692865355
3050911; Pa DE LA REINA CRISTINA;Julin Gayarre-Andrs Torrejn;Andrs Torrejn;27/05/2021;03/06/2021;40.40683045;-3.682710935
3050912; Pa DE LA REINA CRISTINA;Julin Gayarre-Andrs Torrejn;Julin Gayarre;27/05/2021;03/06/2021;40.406886;-3.682721774
3050936;  Avenida Menndez Pelayo;Doctor Castelo-ODonnell;O Donnell;27/05/2021;03/06/2021;40.42075284;-3.679602452
5020571; C. LOPEZ DE HOYOS;Eugenio Salazar-Marcenado;Eugenio Salazar;28/12/2020;04/01/2021;40.44503447;-3.672863005
5020572;C. LOPEZ DE HOYOS;Eugenio Salazar-Marcenado;Marcenado;28/12/2020;04/01/2021;40.4449886;-3.672830035
5020592;C. MARIA DE MOLINA;Principe de Vergara-Francisco Silvela;Principe de Vergara;28/12/2020;04/01/2021;40.43745789;-3.678161272
5020735;Lateral C. PRINCIPE DE VERGARA;Canillas-Luis Cabrera;Luis Cabrera;28/12/2020;04/01/2021;40.44037933;-3.67866255
5020897;Avenida AVENIDA AMERICA;Mataelpino -Francisco Silvela;Francisco Silvela;28/12/2020;04/01/2021;40.43808155;-3.676334653
5020898;Avenida AVENIDA AMERICA;Mataelpino -Francisco Silvela;Mataelpino;28/12/2020;04/01/2021;40.43801177;-3.676257446
5020949;C. Calle Lpez de Hoyos;Quintiliano-Cartagena;Cartagena;28/12/2020;04/01/2021;40.44252248;-3.676309529
5020950;C. Calle Lpez de Hoyos;Quintiliano-Cartagena;Quintiliano;28/12/2020;04/01/2021;40.44257268;-3.676349393
5030679;C. PADRE CLARET;Lopez de Hoyos-Acceso M-30;Acceso M-30;29/12/2020;05/01/2021;40.45082916;-3.665131871
5030718;C. PRADILLO;Pantoja-Saturnino Calleja;Saturnino Calleja;29/12/2020;05/01/2021;40.44899316;-3.671579161
5030719;C. PRADILLO;Pantoja-Saturnino Calleja;Pantoja;29/12/2020;05/01/2021;40.44904194;-3.67159
5030721;C. PRADILLO;Plaza de Cataluna-Vinaroz;Plaza de Cataluna;29/12/2020;05/01/2021;40.44878071;-3.67722729
5031097;Av. RAMON Y CAJAL;Principe de Vergara-Plaza Virgen Guadalupana;Principe de Vergara;29/12/2020;05/01/2021;40.45170455;-3.675470638
5031098;Av. RAMON Y CAJAL;Principe de Vergara-Plaza Virgen Guadalupana;Plaza Virgen Guadalupana;29/12/2020;05/01/2021;40.45159826;-3.67548
5040401;Paseo. Paseo de la Castellana;Rafael Salgado-Profesor Waksman;Rafael Salgado;29/12/2020;05/01/2021;40.45521777;-3.690469219
5040488;Paseo. HABANA;Infanta Maria Teresa-Herreros de Tejada;Herreros de Tejada;30/12/2020;06/01/2021;40.45498321;-3.682669898
5040489;Paseo. HABANA;Infanta Maria Teresa-Herreros de Tejada;Infanta Maria Teresa;30/12/2020;06/01/2021;40.45502994;-3.682714129
5040820;C. SERRANO;Republica de El Ecuador (Pz.)-Rodriguez Marin;Republica de El Ecuador (Pz.);30/12/2020;06/01/2021;40.45453895;-3.677935089
5040821;C. SERRANO;Republica de El Ecuador (Pz.)-Rodriguez Marin;Rodriguez Marin;30/12/2020;06/01/2021;40.45458417;-3.677971226
5040939;C. Calle Prncipe de Vergara;Colombia-Plaza de la Republica Dominicana;Colombia;30/12/2020;06/01/2021;40.45770555;-3.676959484
5040940;C. Calle Prncipe de Vergara;Colombia-Plaza de la Republica Dominicana;Plaza de la Republica Dominicana;30/12/2020;06/01/2021;40.45770077;-3.676845386
5040969;Paseo PASEO CASTELLANA (LATERAL);Rafael Salgado-Profesor Waskman;Rafael Salgado;29/12/2020;05/01/2021;40.45525769;-3.690805957
5050490;Paseo. HABANA;Jerez-Avenida Comandante Franco;Comandante Franco;30/12/2020;06/01/2021;40.46478161;-3.679585618
5050491;Paseo. HABANA;Jerez-Avenida Comandante Franco;Jerez;30/12/2020;06/01/2021;40.46479419;-3.679657736
7060291;C. CEA BERMUDEZ;Guzman el Bueno-Andres Mellado;Andres Mellado;25/01/2021;01/02/2021;40.43911376;-3.71334961
8060644; C. NUESTRA SENORA DE VALVERDE;Alonso Quijano-Monasterio de Arlanza;Alonso Quijano;11/02/2021;18/02/2021;40.50629;-3.685448387
9031602;  del Dr. Federico Rubio y Gal;Calle del Rector Royo-VillanovA-Calle del Almirante Francisco Moreno;Calle del Rector Royo-VillanovA;23/03/2021;30/03/2021;40.45407;-3.71423
9031603;  del Dr. Federico Rubio y Gal;Calle del Rector Royo-VillanovA-Calle del Almirante Francisco Moreno;Calle del Almirante Francisco Moreno;23/03/2021;30/03/2021;40.45407;-3.71423
10010227;C. CARAMUEL;Concejal Francisco Jose Jimenez Martin-Via Carpetana;Concejal Francisco Jose Jimenez Martin;26/01/2021;02/02/2021;40.40311823;-3.72965525
10010228;C. CARAMUEL;Concejal Francisco Jose Jimenez Martin-Via Carpetana;Via Carpetana;26/01/2021;02/02/2021;40.40328235;-3.729780564
10010873;C. VIA CARPETANA;Paseo Ermita del Santo-Caramuel;Caramuel;26/01/2021;02/02/2021;40.40185781;-3.730204065
10010977;C. ALHAMBRA;Glorieta Los Carmenes-Cullera;Glorieta Los Carmenes;26/01/2021;02/02/2021;40.39606571;-3.743770024
10010978;C. ALHAMBRA;Glorieta Los Carmenes-Cullera;Cullera;26/01/2021;02/02/2021;40.39607786;-3.743688048
10011001;C Concejal Francisco Jos' JimENEZ;CALLE VINEGRA-CALLE GOTARRENDURA;CALLE GOTARRENDURA;27/01/2021;03/02/2021;40.40161374;-3.737052814
10011002;C Concejal Francisco Jos' JimENEZ;CALLE VINEGRA-CALLE GOTARRENDURA;CALLE VINEGRA;27/01/2021;03/02/2021;40.40177936;-3.737089062
10011078;Av. NUESTRA SENORA DE VALVANERA;La Laguna-Los Carmenes (Gt.);La Laguna;27/01/2021;03/02/2021;40.39455646;-3.743001042
10011079;Av. NUESTRA SENORA DE VALVANERA;La Laguna-Los Carmenes (Gt.);Los Carmenes (Gt.);27/01/2021;03/02/2021;40.39461925;-3.742890591
10012793;Calle CONCEJAL FRANCISCO J.JIMENEZ MARTIN;Gotarramenda-Luis Muriel;Luis Muriel;27/01/2021;03/02/2021;40.40224887;-3.733159957
10012794;Calle CONCEJAL FRANCISCO J.JIMENEZ MARTIN;Gotarramenda-Luis Muriel;Gotarramenda;27/01/2021;03/02/2021;40.40230311;-3.733174015
10012797;Calle CONCEJAL FRANCISCO J.MARTIN;Muico-Viegra;Viegra;27/01/2021;03/02/2021;40.40129675;-3.739866102
10012798;Calle CONCEJAL FRANCISCO J.MARTIN;Muico-Viegra;Muico;27/01/2021;03/02/2021;40.4013565;-3.739875069
10020229;C. CARAMUEL;Paseo de Extremadura-Antonio Zamora;Paseo de Extremadura;27/01/2021;03/02/2021;40.41332832;-3.727061374
10020230;C. CARAMUEL;Paseo de Extremadura-Antonio Zamora;Antonio Zamora;27/01/2021;03/02/2021;40.41332;-3.72717
10020393;Paseo. ERMITA DEL SANTO;Glorieta Puente Segovia-M-30;Glorieta Puente Segovia;28/01/2021;04/02/2021;40.41332725;-3.724184772
10020394;Paseo. ERMITA DEL SANTO;Glorieta Puente Segovia-M-30;M-30;28/01/2021;04/02/2021;40.41332466;-3.724264794
10020816;C. SEPULVEDA;Paseo de la Ermita del Santo-Neguilla;Pablo Casals;28/01/2021;04/02/2021;40.40876865;-3.724671323
10020817;C. SEPULVEDA;Paseo de la Ermita del Santo-Neguilla;Paseo de la Ermita del Santo;28/01/2021;04/02/2021;40.40871329;-3.724674194
10021024;Paseo EXTREMADURA;Turismundo-Sisebuto;Sisebuto;28/01/2021;04/02/2021;40.41154307;-3.734019321
10021025;Paseo EXTREMADURA;Turismundo-Sisebuto;Turismundo;28/01/2021;04/02/2021;40.41165795;-3.734087184
10021234;C. CARAMUEL;Plaza Egabro-Antillon;Antillon;28/01/2021;04/02/2021;40.41055428;-3.727123777
10021235;C. CARAMUEL;Plaza Egabro-Antillon;Plaza Egabro;28/01/2021;04/02/2021;40.41050572;-3.727000209
10021659;C. ANTONIO ZAMORA;Guadarrama-Repulles y Vargas;Repulles y Vargas;28/01/2021;04/02/2021;40.41158207;-3.733043114
10022534;C. SEVERINO AZNAR EMBID;Francisco Brizuela-Cuesta de Castro de Vigo;Cuesta de Castro de Vigo;28/01/2021;04/02/2021;40.40796852;-3.738745227
10022535;C. SEVERINO AZNAR EMBID;Francisco Brizuela-Cuesta de Castro de Vigo;Francisco Brizuela;28/01/2021;04/02/2021;40.40801898;-3.738703182
10022876;- Avenida DE PORTUGAL (N 105);Puerta del Angel-Fruela;Puerta del Angel;28/01/2021;04/02/2021;40.41293333;-3.733466667
10023071;- Calle HUERTA DE CASTAEDA (TUNEL);Paseo de Extremadura-Higueras;Higueras;28/01/2021;04/02/2021;40.40798474;-3.741666987
10030505;C. HIGUERAS, LAS;Almazan-Cebreros;Cebreros;28/01/2021;04/02/2021;40.40515059;-3.745266471
10030506;C. HIGUERAS, LAS;Almazan-Cebreros;Almazan;28/01/2021;04/02/2021;40.40514824;-3.74519
10030507;C. HIGUERAS, LAS;Cebreros-Palmipedo;Cebreros;29/01/2021;05/02/2021;40.40457824;-3.745232941
10030508;C. HIGUERAS, LAS;Cebreros-Palmipedo;Palmipedo;29/01/2021;05/02/2021;40.40457412;-3.745307059
10030814;C. SEPULVEDA;Barberan y Collar-Castroserna;Castroserna;29/01/2021;05/02/2021;40.40114409;-3.754226161
10030815;C. SEPULVEDA;Barberan y Collar-Castroserna;Barberan y Collar;29/01/2021;05/02/2021;40.40118399;-3.754335528
10031041;C. HUERTA DE CASTANEDA;Vicente Camaron-Barrionuevo;Barrionuevo;29/01/2021;05/02/2021;40.40679;-3.74185
10031632;C. ALHAMBRA, LA;Concejal F.J.Jimenez Martin-Gregorio Vacas;Concejal F.J.Jimenez Martin;29/01/2021;05/02/2021;40.40097996;-3.74472
10031633;C. ALHAMBRA, LA;Concejal F.J.Jimenez Martin-Gregorio Vacas;Gregorio Vacas;29/01/2021;05/02/2021;40.40097809;-3.744667789
10031842;C. CEBREROS;Rueza-Alverja;Alverja;29/01/2021;05/02/2021;40.4032281;-3.752414986
10031843;C. CEBREROS;Rueza-Alverja;Rueza;29/01/2021;05/02/2021;40.40317184;-3.752387767
10031899;C. CUART DE POBLET;Duquesa de Parcent-Alhambra;Alhambra;29/01/2021;05/02/2021;40.39692927;-3.750854377
10031900;C. CUART DE POBLET;Duquesa de Parcent-Alhambra;Duquesa de Parcent;29/01/2021;05/02/2021;40.39697854;-3.750904695
10032489;C. SAN MANUEL;Paseo de Extremadura-Camino de Campamento;Paseo de Extremadura;02/02/2021;09/02/2021;40.40262033;-3.760660151
10032490;C. SAN MANUEL;Paseo de Extremadura-Camino de Campamento;Camino de Campamento;02/02/2021;09/02/2021;40.40264724;-3.760602759
10032492;Lateral C. SAN MANUEL;Paseo de Extremadura-Camino de Campamento;Camino de Campamento;02/02/2021;09/02/2021;40.40239042;-3.760322406
10033398;Calle VILLASANDINO;Villamann-Villamann;Villamann;02/02/2021;09/02/2021;40.40656534;-3.750724336
10041116;C. VALMOJADO;Illescas-Maqueda;Maqueda;29/01/2021;05/02/2021;40.39155756;-3.758538914
10041117;C. VALMOJADO;Illescas-Maqueda;Illescas;29/01/2021;05/02/2021;40.39152167;-3.758302917
10041643;Paso Inferior C. ALUCHE;Maqueda-Avenida de Los Poblados;Maqueda;02/02/2021;09/02/2021;40.38618284;-3.760775883
10041644;Paso Inferior C. ALUCHE;Maqueda-Avenida de Los Poblados;Avenida de Los Poblados;02/02/2021;09/02/2021;40.38627026;-3.760851766
10042093;C. ILLESCAS;Sesena-Escalona;Sesena;08/02/2021;15/02/2021;40.39642998;-3.765127549
10042094;C. ILLESCAS;Sesena-Escalona;Escalona;08/02/2021;15/02/2021;40.39638467;-3.765208676
10042189; C. MAQUEDA;Quero-Valmojado;Quero;25/02/2021;04/03/2021;40.38669287;-3.760670695
10042190; C. MAQUEDA;Quero-Valmojado;Valmojado;25/02/2021;04/03/2021;40.38663059;-3.76078446
10042276;C. NUESTRA SENORA DE LA LUZ;Camino Ingenieros-Ocana;Camino Ingenieros;25/02/2021;04/03/2021;40.38604256;-3.751091813
10042277;C. NUESTRA SENORA DE LA LUZ;Camino Ingenieros-Ocana;Ocana;25/02/2021;04/03/2021;40.38608247;-3.751041053
10042286;C. OCANA;Camarena-Valmojado;Valmojado;02/02/2021;09/02/2021;40.38555959;-3.759609366
10042287;C. OCANA;Camarena-Valmojado;Camarena;02/02/2021;09/02/2021;40.38548701;-3.759721972
10042288;C. OCANA;Camarena-Nuestra Senora de la Luz;Camarena;02/02/2021;09/02/2021;40.3862099;-3.752887641
10042289;C. OCANA;Camarena-Nuestra Senora de la Luz;Nuestra Senora de la Luz;02/02/2021;09/02/2021;40.3861868;-3.752783697
10042306;  PADRE PIQUER;Empalme (Pz)-Escalona;Escalona;02/02/2021;09/02/2021;40.39424194;-3.767985886
10042307;Av. PADRE PIQUER;Empalme (Pz)-Escalona;Empalme (Pz);02/02/2021;09/02/2021;40.39419989;-3.768097597
10042491;Lateral C. SAN MANUEL;Paseo de Extremadura-Camino de Campamento;Paseo de Extremadura;02/02/2021;09/02/2021;40.40259094;-3.760739305
10042531;C. SESENA;Escalona-Avenida del Padre Piquer;Avenida del Padre Piquer;02/02/2021;09/02/2021;40.39511491;-3.767886524
10042625;C. YEBENES;Camarena-Illescas;Illescas;02/02/2021;09/02/2021;40.39197942;-3.751505894
10042626;C. YEBENES;Camarena-Illescas;Camarena;02/02/2021;09/02/2021;40.39198259;-3.751460403
10042629;C. YEBENES;Valmojado-Duquesa de Parcent;Valmojado;02/02/2021;09/02/2021;40.39731733;-3.754927683
10042630;C. YEBENES;Valmojado-Duquesa de Parcent;Duquesa de Parcent;02/02/2021;09/02/2021;40.39724832;-3.754975148
10042745;Calle CAMARENA;Los Ybenes-Illescas;Illescas;02/02/2021;09/02/2021;40.39235132;-3.755729367
10042746;Calle CAMARENA;Los Ybenes-Illescas;Los Ybenes;02/02/2021;09/02/2021;40.39234259;-3.755674077
10043279;Calle QUERO;Maqueda-Tembleque;Maqueda;03/02/2021;10/02/2021;40.39110627;-3.761138134
10043280;Calle QUERO;Maqueda-Tembleque;Tembleque;03/02/2021;10/02/2021;40.3911002;-3.761086293
10043352;- Calle SESEA;Acceso N-V-Illescas;Illescas;03/02/2021;10/02/2021;40.39785238;-3.764243539
10043353;- Calle SESEA;Acceso N-V-Illescas;Acceso N-V;03/02/2021;10/02/2021;40.39774305;-3.764188874
10043357; C. SESEA;Valmojado-Escalona;Escalona;27/01/2021;03/02/2021;40.39768635;-3.758209151
10043358; C. SESEA;Valmojado-Escalona;Valmojado;27/01/2021;03/02/2021;40.39775935;-3.758190651
10052520; C. SEBASTIAN ALVARO;Cine-Los Poblados (Av.);Cine;27/01/2021;03/02/2021;40.39392982;-3.772483804
10052521; C. SEBASTIAN ALVARO;Cine-Los Poblados (Av.);Los Poblados (Av.);27/01/2021;03/02/2021;40.39389;-3.77244
10060158;  AVIACION;Rafael Finat-Valle Inclan;Rafael Finat;27/01/2021;03/02/2021;40.37433355;-3.774272125
10060159;  AVIACION;Rafael Finat-Valle Inclan;Valle Inclan;27/01/2021;03/02/2021;40.37451;-3.774177908
10060522; C. JOAQUIN TURINA;Clarinetes-Jacobeo;Jacobeo;27/01/2021;03/02/2021;40.37277118;-3.76362
10060523; C. JOAQUIN TURINA;Clarinetes-Jacobeo;Clarinetes;27/01/2021;03/02/2021;40.37285235;-3.763605882
10060903; C BARRIO DE LA FORTUNA (Carretera);Aviacin (avda)-M-40 (carretera);M-40 (carretera);27/01/2021;03/02/2021;40.36596506;-3.768126512
10060904; C BARRIO DE LA FORTUNA (Carretera);Aviacin (avda)-M-40 (carretera);Aviacin (avda);27/01/2021;03/02/2021;40.36591736;-3.768117426
10061917;  DE LA PESETA;C VIOLAS-VALLE DE BOI;VALLE DE BOI;27/01/2021;03/02/2021;40.36738151;-3.764908772
10061918;  DE LA PESETA;C VIOLAS-VALLE DE BOI;C VIOLAS;27/01/2021;03/02/2021;40.3675;-3.76452
10062721; C. BARRIO DE LA FORTUNA;Trompas-Xilfono;Xilfono;28/01/2021;04/02/2021;40.37132649;-3.766013135
10062722; C BARRIO DE LA FORTUNA;Trompas-Xilfono;Trompas;28/01/2021;04/02/2021;40.37130503;-3.765890784
10062822;  DE LA AVIACIN;Monroy-Mirabel;Mirabel;28/01/2021;04/02/2021;40.37685882;-3.783096746
10062851;Avenida DE LA VILLA DE VALLECAS;Avenida del Cerro Milano-Malpica del Tajo;Avenida del Cerro Milano;04/03/2021;11/03/2021;40.36912987;-3.621123642
10062852;Avenida DE LA VILLA DE VALLECAS;Avenida del Cerro Milano-Malpica del Tajo;Malpica del Tajo;25/02/2021;04/03/2021;40.36921321;-3.621156975
10070154;  AVIACION;Jose de Cadalso-General Millan Astray;General Millan Astray;28/01/2021;04/02/2021;40.3733675;-3.767413985
10070155;  AVIACION;Jose de Cadalso-General Millan Astray;Jose de Cadalso;28/01/2021;04/02/2021;40.37344;-3.76738
10070156;  AVIACION;Navalmoral de la Mata-Aldeanueva de la Vera;Navalmoral de la Mata;28/01/2021;04/02/2021;40.37503321;-3.777567386
10070157;  AVIACION;Navalmoral de la Mata-Aldeanueva de la Vera;Aldeanueva de la Vera;28/01/2021;04/02/2021;40.37494466;-3.777605835
10070446;  GENERAL FANJUL;AV DE LOS POBLADOS-C DE GUAREA;C DE GUAREA;29/01/2021;05/02/2021;40.38513874;-3.763221453
10070447;  GENERAL FANJUL;Jose de Cadalso-General Romero Basart;Jose de Cadalso;28/01/2021;04/02/2021;40.38236525;-3.773894403
10070448;  GENERAL FANJUL;Jose de Cadalso-General Romero Basart;General Romero Basart;28/01/2021;04/02/2021;40.38251796;-3.773917115
10070449; C. GENERAL MILLAN ASTRAY;General Romero Basart-Rafael Finat;Rafael Finat;29/01/2021;05/02/2021;40.37913195;-3.767058221
10070450; C. GENERAL MILLAN ASTRAY;General Romero Basart-Rafael Finat;General Romero Basart;29/01/2021;05/02/2021;40.37911009;-3.767142039
10070451; C. GENERAL MILLAN ASTRAY;General Saliquet-Avenida de La Aviacion;General Saliquet;29/01/2021;05/02/2021;40.37362898;-3.765483688
10070452; C. GENERAL MILLAN ASTRAY;General Saliquet-Avenida de La Aviacion;Avenida de La Aviacion;29/01/2021;05/02/2021;40.37363809;-3.765525597
10070710;Av. POBLADOS M-401;Luis Chamizo-Rafael Finat;Luis Chamizo;03/02/2021;10/02/2021;40.38663819;-3.762837161
10070711;Av. POBLADOS M-401;Luis Chamizo-Rafael Finat;Rafael Finat;03/02/2021;10/02/2021;40.38653006;-3.762927226
10070881;C VIDAUBA;C SANGUINO-C DAMASQUILLO;C DAMASQUILLO;03/02/2021;10/02/2021;40.38267599;-3.763466268
10070959;  General Fanjul;Avenida de Los Poblados-Rafael Finat;Rafael Finat;29/01/2021;05/02/2021;40.38510148;-3.763283277
10070960;  General Fanjul;Avenida de Los Poblados-Rafael Finat;Avenida de Los Poblados;29/01/2021;05/02/2021;40.38475764;-3.763035072
10071094;  RAFAEL FINAT;General Saliquet-La Aviacion;La Aviacion;29/01/2021;05/02/2021;40.37479929;-3.773169203
10071095;  RAFAEL FINAT;General Saliquet-La Aviacion;General Saliquet;29/01/2021;05/02/2021;40.37478966;-3.773038262
10072144;  LA AVIACION;Medina del Campo-Monroy;Monroy;29/01/2021;05/02/2021;40.3788098;-3.784282969
10072145;  LA AVIACION;Medina del Campo-Monroy;Paseo de Extremadura;29/01/2021;05/02/2021;40.37883664;-3.784124405
10072168;C LUIS CHAMIZO;Calle Bigastro-Calle de Guarea;Calle de Guarea;03/02/2021;10/02/2021;40.38649516;-3.766661882
10072169;C LUIS CHAMIZO;Calle Bigastro-Calle de Guarea;Calle Bigastro;03/02/2021;10/02/2021;40.38653932;-3.766676376
10072654;Calle ALDEANUEVA DE LA VERA;General Saliquet-Oliva de Plasencia;General Saliquet;03/02/2021;10/02/2021;40.3786283;-3.776198565
10072823;  DE LA AVIACIN;Monroy-Mirabel;Monroy;28/01/2021;04/02/2021;40.37690785;-3.783026448
10072862;Avenida DE LOS POBLADOS;Avenida del General Fanjul-Parque Eugenia de Montijo;Avenida del General Fanjul;03/02/2021;10/02/2021;40.37953188;-3.7563224
10072863;  DE LOS POBLADOS;Avenida del General Fanjul-Parque Eugenia de Montijo;Parque Eugenia de Montijo;03/02/2021;10/02/2021;40.37948059;-3.75643053
10072905;Avenida DEL GENERAL FANJUL;General Romero Basart-Aldeanueva de la Vera;General Romero Basart;03/02/2021;10/02/2021;40.38190726;-3.776280945
10072906;Avenida DEL GENERAL FANJUL;General Romero Basart-Aldeanueva de la Vera;Aldeanueva de la Vera;03/02/2021;10/02/2021;40.38195999;-3.776292394
10073020;Calle GENERAL ROMERO BASART;Casuarina-Vidauba;Casuarina;04/02/2021;11/02/2021;40.37841307;-3.764754204
10073021;Calle GENERAL ROMERO BASART;Casuarina-Vidauba;Vidauba;04/02/2021;11/02/2021;40.37834473;-3.76473622
10073024;Calle GENERAL ROMERO BASART;Valle Incln-Rafael Finat;Rafael Finat;04/02/2021;11/02/2021;40.37804833;-3.773003952
10073025;Calle GENERAL ROMERO BASART;Valle Incln-Rafael Finat;Valle Incln;04/02/2021;11/02/2021;40.37814544;-3.772928419
10073045;- Calle GUAREA;Avenida de los Poblados-Luis Chamizo;Avenida de los Poblados;04/02/2021;11/02/2021;40.38809373;-3.765835401
10073046;- Calle GUAREA;Avenida de los Poblados-Luis Chamizo;Luis Chamizo;04/02/2021;11/02/2021;40.3880822;-3.765881197
10073110;Calle JOSE DE CADALSO;Rafael Finat-General Romero Basart;Rafael Finat;04/02/2021;11/02/2021;40.37858167;-3.769025152
10073111;Calle JOSE DE CADALSO;Rafael Finat-General Romero Basart;General Romero Basart;04/02/2021;11/02/2021;40.37854439;-3.769090379
10073157;Calle LOGROSAN;Mirabel-Jarandilla;Mirabel;04/02/2021;11/02/2021;40.3756054;-3.780390897
10073209;Calle MONROY;Avenida del General Fanjul-Avenida de la Aviacin;Avenida de la Aviacin;04/02/2021;11/02/2021;40.37966292;-3.784139616
10073210;Calle MONROY;Avenida del General Fanjul-Avenida de la Aviacin;Avenida del General Fanjul;04/02/2021;11/02/2021;40.37968353;-3.784067315
11010035;C. ANTONIO LOPEZ;Fuenlabrada-Baleares;Jacinto Verdaguer;05/02/2021;12/02/2021;40.39680275;-3.713821643
11010036;C. ANTONIO LOPEZ;Fuenlabrada-Baleares;Glorita Marques de Vadillo;05/02/2021;12/02/2021;40.39685807;-3.713791657
11010037;C. ANTONIO LOPEZ;Parador del Sol-Marques de Jura Real;Marques de Jura Real;05/02/2021;12/02/2021;40.39429883;-3.708504338
11010038;C. ANTONIO LOPEZ;Parador del Sol-Marques de Jura Real;Parador del Sol;05/02/2021;12/02/2021;40.39435707;-3.708474143
11010980;C. ANTONIO LEYVA;Santa Lucrecia-Plaza de Fernandez Ladreda;Plaza de Fernandez Ladreda;04/02/2021;11/02/2021;40.38650881;-3.717137259
11010981;C. ANTONIO LEYVA;Santa Lucrecia-Plaza de Fernandez Ladreda;Santa Lucrecia;04/02/2021;11/02/2021;40.38649458;-3.717072485
11011797;Pte. CAPUCHINOS;Marques de Jura Real-Manuel Noya;Marques de Jura Real;05/02/2021;12/02/2021;40.39028204;-3.712071686
11011798;Pte. CAPUCHINOS;Marques de Jura Real-Manuel Noya;Manuel Noya;05/02/2021;12/02/2021;40.39025857;-3.712157966
11012125;C. JACINTO VERDAGUER;Antonio Lopez-Antonio Leyva;Antonio Lopez;05/02/2021;12/02/2021;40.39611154;-3.714743442
11012126;C. JACINTO VERDAGUER;Antonio Lopez-Antonio Leyva;Antonio Leyva;05/02/2021;12/02/2021;40.39614191;-3.71474721
11013332;- Paseo SANTA M CABEZA (SENTIDO SALIDA);Guadalete-Baleares;Guadalete;05/02/2021;12/02/2021;40.38920731;-3.713721584
11020457;C. GENERAL RICARDOS;Azabache-San Patricio;Azabache;05/02/2021;12/02/2021;40.39247818;-3.725381063
11020458;C. GENERAL RICARDOS;Azabache-San Patricio;San Patricio;05/02/2021;12/02/2021;40.39253011;-3.72540898
11020660;  OPORTO;Avenida de Abrantes-Plaza Fernandez Ladreda;Avenida de Abrantes;26/01/2021;02/02/2021;40.38522;-3.71869
11020662;Av. OPORTO;Camino Viejo Leganes-Glorieta Valle de Oro;Valle de Oro;10/02/2021;17/02/2021;40.38677787;-3.728888885
11020862;C. VALLE DE ORO;Portalegre-Argueso;Argueso;26/01/2021;02/02/2021;40.38718652;-3.72496
11020928;Av. Avenida de Oporto;Elvas-Portalegre;Elvas;18/02/2021;25/02/2021;40.38555226;-3.724353548
11020929;Av. Avenida de Oporto;Elvas-Portalegre;Portalegre;18/02/2021;25/02/2021;40.38548419;-3.724373226
11021120;C. VIA, LA;Fernandez Ladreda (Pz.)-Santa Lucrecia;Santa Lucrecia;26/01/2021;02/02/2021;40.38579;-3.7188
11021585;C. VALLE DE ORO;Camino Viejo Leganes-Valle de Oro;Valle de Oro;25/02/2021;04/03/2021;40.38788464;-3.72798715
11022366;C. PORTALEGRE;La Via-Avenida de Oporto;Avenida de Oporto;18/02/2021;25/02/2021;40.38637577;-3.723380092
11022367;C. PORTALEGRE;La Via-Avenida de Oporto;La Via;18/02/2021;25/02/2021;40.38636693;-3.723328663
11022601;C VIEJO DE LEGANES;Valle de Oro-Castro de Oro;Castro de Oro;09/02/2021;15/02/2021;40.38805733;-3.727053428
11023380; C. VALLE DEL ORO;Camino Viejo de Legans-Doctor Espina;Doctor Espina;09/02/2021;16/02/2021;40.38788114;-3.728164255
11023381; C. VALLE DEL ORO;Camino Viejo de Legans-Doctor Espina;Camino Viejo de Legans;09/02/2021;16/02/2021;40.38786667;-3.728166667
11030395;Paseo. ERMITA DEL SANTO;San Ambrosio-Ponton San Isidro;Via Carpetana;09/02/2021;15/02/2021;40.40412957;-3.724701139
11030396;Paseo. ERMITA DEL SANTO;San Ambrosio-Ponton San Isidro;Ponton San Isidro;09/02/2021;15/02/2021;40.40411841;-3.724819121
11030459;C. GENERAL RICARDOS;Glorieta del Marques de Vadillo-Paseo del Quince de Mayo;Glorieta del Marques de Vadillo;09/02/2021;15/02/2021;40.39730588;-3.716646898
11030460;C. GENERAL RICARDOS;Glorieta del Marques de Vadillo-Paseo del Quince de Mayo;Paseo del Quince de Mayo;09/02/2021;15/02/2021;40.39734796;-3.716692408
11030650;C. OCA;General Ricardos-Avenida Nuestra Senora de Valvanera;Avenida Nuestra Senora de Valvanera;09/02/2021;15/02/2021;40.38874665;-3.732195806
11030872;C. VIA CARPETANA;Paseo Ermita del Santo-Caramuel;Paseo Ermita del Santo;09/02/2021;15/02/2021;40.40197458;-3.730335226
11030961;C. Va Carpetana;Ateca-Avenida Nuestra Senora de Valvanera;Ateca;09/02/2021;15/02/2021;40.39343455;-3.740239012
11030962;C. Va Carpetana;Ateca-Avenida Nuestra Senora de Valvanera;Avenida Nuestra Senora de Valvanera;09/02/2021;15/02/2021;40.3934892;-3.740282277
11031092;Paseo QUINCE DE MAYO;Julian Gonzalez-Santa Saturnina;Santa Saturnina;10/02/2021;16/02/2021;40.39808934;-3.719153762
11031093;Paseo QUINCE DE MAYO;Julian Gonzalez-Santa Saturnina;Julian Gonzalez;10/02/2021;16/02/2021;40.39818244;-3.719106583
11031913;Paseo DE LA ERMITA DEL SANTO;Calle Via Carpetana-Paseo del Quince de Mayo;Paseo del Quince de Mayo;10/02/2021;16/02/2021;40.39909118;-3.728050842
11031914;Paseo DE LA ERMITA DEL SANTO;Calle Via Carpetana-Paseo del Quince de Mayo;Calle Via Carpetana;10/02/2021;16/02/2021;40.39923921;-3.728089719
11032481;Tunel C. SAN AMBROSIO;Paseo de la Ermita del Santo-M30;M30;10/02/2021;16/02/2021;40.40453206;-3.723934827
11032482;Lateral C. SAN AMBROSIO;Paseo de la Ermita del Santo-M30;M30;10/02/2021;16/02/2021;40.40456501;-3.723934827
11032633;C. ZAIDA;Fragata-Brihuega;Fragata;10/02/2021;16/02/2021;40.39444277;-3.735905148
11032634;C. ZAIDA;Fragata-Brihuega;Brihuega;10/02/2021;16/02/2021;40.39443248;-3.735848516
11033100;Travesa IVAN DE VARGAS;M-30-Paseo Ermita del Santo;Paseo Ermita del Santo;10/02/2021;16/02/2021;40.4028069;-3.723826522
11040405;C. EUGENIA DE MONTIJO;Avenida de Los Poblados-Plaza del Parterre;Plaza del Parterre;10/02/2021;16/02/2021;40.37604262;-3.750528178
11040461;C. GENERAL RICARDOS;Nuestra Senora de la Luz-Monsenor Oscar Romero;Monsenor Oscar Romero;11/02/2021;17/02/2021;40.38252013;-3.742886334
11040462;C. GENERAL RICARDOS;Nuestra Senora de la Luz-Monsenor Oscar Romero;Nuestra Senora de la Luz;11/02/2021;17/02/2021;40.38246286;-3.742857332
11040642;  NUESTRA SENORA DE FATIMA;Nuestra Senora de la Luz-Monsenor Oscar Romero;Nuestra Senora de la Luz;11/02/2021;18/02/2021;40.38369135;-3.747098839
11040643;Av. NUESTRA SENORA DE FATIMA;Nuestra Senora de la Luz-Monsenor Oscar Romero;Monsenor Oscar Romero;11/02/2021;17/02/2021;40.38374;-3.74724
11040651;C. OCA;General Ricardos-Avenida Nuestra Senora de Valvanera;General Ricardos;09/02/2021;15/02/2021;40.38869265;-3.732228194
11040652;C. OCA;Ramon Sainz-Blandon;Ramon Sainz;11/02/2021;17/02/2021;40.38899823;-3.739434557
11040653;C. OCA;Ramon Sainz-Blandon;Blandon;11/02/2021;17/02/2021;40.38894172;-3.739423621
11040706;Av. POBLADOS M-401;Consuelo Guzman-Eugenia de Montijo;Consuelo Guzman;11/02/2021;17/02/2021;40.37670614;-3.75131
11040707;  POBLADOS M-401;Consuelo Guzman-Eugenia de Montijo;Eugenia de Montijo;11/02/2021;18/02/2021;40.37660338;-3.751324242
11040870;C. VIA CARPETANA;Avenida Nuestra Senora de Valvanera-La Laguna;La Laguna;11/02/2021;17/02/2021;40.39238174;-3.741764258
11040871;C. VIA CARPETANA;Avenida Nuestra Senora de Valvanera-La Laguna;Avenida Nuestra Senora de Valvanera;11/02/2021;17/02/2021;40.39229503;-3.741692
11040963;C. Eugenia de Montijo;Avenida Nuestra Senora de Fatima-Paseo de Los Castellanos;Paseo de Los Castellanos;11/02/2021;17/02/2021;40.37756877;-3.74887406
11041040;C. GUABAIRO;Juan Alonso-Avenida Nuestra Senora de Fatima;Avenida Nuestra Senora de Fatima;12/02/2021;18/02/2021;40.38631;-3.7455
11041348;C. GENERAL RICARDOS;Monsenor Oscar Romero-Eugenia de Montijo;Monsenor Oscar Romero;12/02/2021;18/02/2021;40.3813183;-3.744511128
11041349;C. GENERAL RICARDOS;Monsenor Oscar Romero-Eugenia de Montijo;Eugenia de Montijo;12/02/2021;18/02/2021;40.3813569;-3.744603586
11041455;Av. NUESTRA SENORA DE FATIMA;Espinar-Juan Urosa;Espinar;12/02/2021;18/02/2021;40.38554;-3.74515
11041459;C. OCA;Laguna-Halcon;Halcon;12/02/2021;18/02/2021;40.38841999;-3.742420599
11041460;C. OCA;Laguna-Halcon;Laguna;12/02/2021;18/02/2021;40.38835941;-3.742395437
11041814;C. CAROLINA PAINO;Eulalia Gil-Batalla de Torrijos;Batalla de Torrijos;12/02/2021;18/02/2021;40.38492559;-3.742191098
11042107;C INGENIEROS;Juan Alonso-Nuestra Senora de la Luz;Nuestra Senora de la Luz;12/02/2021;18/02/2021;40.38577022;-3.748842323
11042108;C INGENIEROS;Juan Alonso-Nuestra Senora de la Luz;Juan Alonso;12/02/2021;18/02/2021;40.3857456;-3.748818815
11042256;Paseo. MUNOZ GRANDES;Avenida Nuestra Senora de Fatima-El Ejercito (Gt.);El Ejercito (Gt.);12/02/2021;18/02/2021;40.38718812;-3.743546406
11042259;Paseo. MUNOZ GRANDES;General Ricardos-Castrogeriz;General Ricardos;12/02/2021;18/02/2021;40.38524741;-3.740209743
11042260;Paseo. MUNOZ GRANDES;General Ricardos-Castrogeriz;Castrogeriz;12/02/2021;18/02/2021;40.38528637;-3.740159066
11042273;AV NUESTRA SEORA DE FATIMA;CALLE DEL ESPINAR-PASEO MUOZ GRANDES;PASEO MUOZ GRANDES;12/02/2021;18/02/2021;40.38652;-3.743868675
11042278;C. NUESTRA SENORA DE LA LUZ;Camino Ingenieros-Nuestra Senora de Fatima;Nuestra Senora de Fatima;15/02/2021;22/02/2021;40.38498444;-3.748730468
11042279;C. NUESTRA SENORA DE LA LUZ;Camino Ingenieros-Nuestra Senora de Fatima;Camino Ingenieros;15/02/2021;22/02/2021;40.38506426;-3.748664971
11050406;C. EUGENIA DE MONTIJO;Avenida de Los Poblados-Plaza del Parterre;Avenida de Los Poblados;10/02/2021;16/02/2021;40.37600089;-3.750480087
11050661;Av. OPORTO;Camino Viejo Leganes-Glorieta Valle de Oro;Camino Viejo Leganes;15/02/2021;22/02/2021;40.38672493;-3.728914865
11050704;Av. POBLADOS M-401;Carabanchel Bajo-Antonia Rodriguez Sacristan;Antonia Rodriguez Sacristan;15/02/2021;22/02/2021;40.37442826;-3.745794774
11050705;Av. POBLADOS M-401;Carabanchel Bajo-Antonia Rodriguez Sacristan;Carabanchel Bajo;15/02/2021;22/02/2021;40.37449574;-3.745751419
11050964;C. Eugenia de Montijo;Avenida Nuestra Senora de Fatima-Paseo de Los Castellanos;Avenida Nuestra Senora de Fatima;11/02/2021;17/02/2021;40.37753342;-3.748821633
11051500;Av. POBLADOS M-401;Eugenia de Montijo-Carabanchel Bajo;Antonia Rodriguez Sacristan;15/02/2021;22/02/2021;40.37623493;-3.749143774
11051501;Av. POBLADOS M-401;Eugenia de Montijo-Carabanchel Bajo;Eugenia de Montijo;15/02/2021;22/02/2021;40.37632793;-3.749082075
11051722;C. BELZUNEGUI;Albares de la Ribera-Avenida de Los Poblados;Carcastillo;15/02/2021;22/02/2021;40.37414017;-3.738753099
11051723;C. BELZUNEGUI;Albares de la Ribera-Avenida de Los Poblados;Avenida de Los Poblados;15/02/2021;22/02/2021;40.37413647;-3.738825741
11052302;C. PADRE AMIGO;Maria Odiaga-Carcastillo;Carcastillo;15/02/2021;22/02/2021;40.37837193;-3.739602649
11052303;C. PADRE AMIGO;Maria Odiaga-Carcastillo;Maria Odiaga;15/02/2021;22/02/2021;40.37837645;-3.739534467
11060524;C. JOAQUIN TURINA;Roa-Avda. Carabanchel Alto;Avenida Carabanchel Alto;15/02/2021;22/02/2021;40.37280353;-3.752508824
11060525;C. JOAQUIN TURINA;Roa-Avda. Carabanchel Alto;Roa;15/02/2021;22/02/2021;40.37284941;-3.752549412
11060556;Crta. LEGANES;Via Lusitana-Del Thaler;Via Lusitana;15/02/2021;22/02/2021;40.37144201;-3.736555457
11060557;Crta. LEGANES;Via Lusitana-Del Thaler;Del Thaler;16/02/2021;23/02/2021;40.37152135;-3.736648602
11060558;Crta. LEGANES - VIA LUSITANA;M-40-Avenida de la Peseta;M-40;16/02/2021;23/02/2021;40.36281439;-3.744128661
11060559;Crta. LEGANES - VIA LUSITANA;M-40-Avenida de la Peseta;Avenida de la Peseta;16/02/2021;23/02/2021;40.36275148;-3.744075871
11060560;Lateral Crta. LEGANES - VIA LUSITANA;M-40-Avenida de la Peseta;M-40;16/02/2021;23/02/2021;40.36284286;-3.744205068
11060561;Lateral Crta. LEGANES - VIA LUSITANA;M-40-Avenida de la Peseta;Avenida de la Peseta;16/02/2021;23/02/2021;40.36272938;-3.744006608
11060995;AV Carabanchel Alto;Calle Enrique Martnez-Calle Allariz;Calle Enrique Martnez;16/02/2021;23/02/2021;40.3654225;-3.753667529
11060996;AV Carabanchel Alto;Calle Enrique Martnez-Calle Allariz;Calle Allariz;16/02/2021;23/02/2021;40.36541249;-3.753579961
11061337;C. EUGENIA DE MONTIJO;Emperatriz (Pz.)-Parterre (Pz.);Parterre (Pz.);16/02/2021;23/02/2021;40.3751655;-3.750847548
11061338;C. EUGENIA DE MONTIJO;Emperatriz (Pz.)-Parterre (Pz.);Emperatriz (Pz.);16/02/2021;23/02/2021;40.3751593;-3.750986226
11061610;C. AGUACATE;Euro-Secoya;Secoya;16/02/2021;23/02/2021;40.36956205;-3.744177547
11061611;C. AGUACATE;Euro-Secoya;Euro;16/02/2021;23/02/2021;40.36951637;-3.744196202
11061935;C DEL HALCONERO DEL REY;Calle Ventura Daz Bernardo-Calle Cazalegas;Calle Ventura Daz Bernardo;16/02/2021;23/02/2021;40.37062859;-3.72502
11061936;C DEL HALCONERO DEL REY;Calle Ventura Daz Bernardo-Calle Cazalegas;Calle Cazalegas;16/02/2021;23/02/2021;40.44367554;-3.590598533
11062129;C. JACOBEO;Pinar de San Jose-Calle Universidad Alcala de Henares;Pinar de San Jose;16/02/2021;23/02/2021;40.365335;-3.76090732
11062130;C. JACOBEO;Pinar de San Jose-Calle Universidad Alcala de Henares;Calle Universidad Alcala de Henares;16/02/2021;23/02/2021;40.36535279;-3.76084815
11062334;AV PESETA;C MARAVEDI-C LUIS DE ORO;C MARAVEDI;17/02/2021;24/02/2021;40.36311497;-3.74690526
11062335;AV PESETA;C MARAVEDI-C LUIS DE ORO;C LUIS DE ORO;17/02/2021;24/02/2021;40.36292765;-3.746824983
11062406; C. REAL. EL;Calderilla-Treseta;Treseta;17/02/2021;24/02/2021;40.36290324;-3.741140676
11062407;C. REAL, EL;Via Lusitana-Thaler;Via Lusitana;17/02/2021;24/02/2021;40.36299707;-3.741094823
11062414;C REUS;CALLE DEL AGUACATE-CALLE SECOYA;CALLE SECOYA;17/02/2021;24/02/2021;40.37165973;-3.744561911
11062415;C REUS;CALLE DEL AGUACATE-CALLE SECOYA;CALLE DEL AGUACATE;17/02/2021;24/02/2021;40.37169668;-3.744561911
11062866;- Acceso DE M-40 A VIA LUSITANA;M-40-Va Lusitana;Va Lusitana;17/02/2021;24/02/2021;40.36222083;-3.744121492
11062951;Avenida EURO;Enrique Oro-Pepin;Pepin;17/02/2021;24/02/2021;40.37167272;-3.738494919
11063227;Calle OBOLO;Doblo-Euro;Euro;17/02/2021;24/02/2021;40.37049987;-3.740930135
11063228;Calle OBOLO;Doblo-Euro;Doblo;17/02/2021;24/02/2021;40.37053926;-3.740901486
11063259;Avenida POBLADOS;Carranque-Polan;Carranque;17/02/2021;24/02/2021;40.37337065;-3.726837405
11063260;Avenida POBLADOS;Carranque-Polan;Polan;17/02/2021;24/02/2021;40.37329091;-3.726831341
11070700;Av. POBLADOS M-401;Abrantes-Via Lusitana;Abrantes;18/02/2021;25/02/2021;40.37385296;-3.73520791
11070701;Av. POBLADOS M-401;Abrantes-Via Lusitana;Via Lusitana;18/02/2021;25/02/2021;40.37373621;-3.735235434
11070874;Lateral C. VIA LUSITANA;Besolla-Avenida de Los Poblados;Ontanilla;18/02/2021;25/02/2021;40.37474339;-3.732260968
11070875;Lateral C. VIA LUSITANA;Besolla-Avenida de Los Poblados;Avenida de Los Poblados;18/02/2021;25/02/2021;40.37505669;-3.732737984
11070876;Lateral C. VIA LUSITANA;Ontanilla-Avenida de los Poblados;Ontanilla;18/02/2021;25/02/2021;40.37478726;-3.732195726
11070877;C. VIA LUSITANA;Ontanilla-Avenida de Los Poblados;Ontanilla;18/02/2021;25/02/2021;40.37466022;-3.732570215
11070878;C. VIA LUSITANA;Ontanilla-Avenida de Los Poblados;Avenida de Los Poblados;18/02/2021;25/02/2021;40.37479252;-3.73270815
11070879;C. VIA LUSITANA;Plaza Fernandez Ladreda-Braganza;Braganza;18/02/2021;25/02/2021;40.38455579;-3.719067935
11070880;C. VIA LUSITANA;Plaza Fernandez Ladreda-Braganza;Plaza Fernandez Ladreda;18/02/2021;25/02/2021;40.38441032;-3.719008266
11071595;C. VIA LUSITANA;Carranque-Ontanilla;Carranque;22/02/2021;01/03/2021;40.37567;-3.73115
11071606;Av. ABRANTES;Pelicano-Argueso;Pelicano;22/02/2021;01/03/2021;40.38286562;-3.725473868
11071607;Av. ABRANTES;Pelicano-Argueso;Argueso;22/02/2021;01/03/2021;40.38292706;-3.725584245
11071751;C. BRAGANZA;Avenida de Oporto-Via Lusitana;Via Lusitana;22/02/2021;01/03/2021;40.38444218;-3.721193209
12010702;Av. POBLADOS M-401;Avenida Rafaela Ybarra-Guetaria;Avenida Rafaela Ybarra;22/02/2021;01/03/2021;40.37350716;-3.71323671
12010703;Av. POBLADOS M-401;Avenida Rafaela Ybarra-Guetaria;Guetaria;22/02/2021;01/03/2021;40.37357142;-3.713211226
12010712;Av. POBLADOS, LOS M-401;Avenida Princesa Juana de Austria-Guetaria;Guetaria;22/02/2021;01/03/2021;40.3737829;-3.716275677
12010713;Av. POBLADOS, LOS M-401;Avenida Princesa Juana de Austria-Guetaria;Avenida Princesa Juana de Austria;22/02/2021;01/03/2021;40.37385877;-3.716277484
12010744;Av. RAFAELA YBARRA;Leiza-Deva;Leiza;22/02/2021;01/03/2021;40.37036656;-3.712285489
12010745;Av. RAFAELA YBARRA;Leiza-Deva;Deva;22/02/2021;01/03/2021;40.37036194;-3.712351036
12020039;C. ANTONIO LOPEZ;Simon Gonzalez-Virgen de la Encina;Simon Gonzalez;22/02/2021;01/03/2021;40.37866;-3.69531
12020321;Av. CORDOBA;Doctor Tolosa Latour-Glorieta de Malaga;Doctor Tolosa Latour;22/02/2021;01/03/2021;40.37823687;-3.696162361
12020322;Av. CORDOBA;Doctor Tolosa Latour-Glorieta de Malaga;Glorieta de Malaga;22/02/2021;01/03/2021;40.37817933;-3.696370933
12020323;Carril bus Av. CORDOBA;Doctor Tolosa Latour-Glorieta de Malaga;Doctor Tolosa Latour;23/02/2021;02/03/2021;40.37821335;-3.696259257
12020324;Carril bus Av. CORDOBA;Doctor Tolosa Latour-Glorieta de Malaga;Glorieta de Malaga;23/02/2021;02/03/2021;40.37819902;-3.69630223
12020367;C. DOCTOR TOLOSA LATOUR;Avenida de Cordoba-Ciudad Sanitaria 12 Octubre;Ciudad Sanitaria 12 Octubre;23/02/2021;02/03/2021;40.37976987;-3.69740654
12020368;C. DOCTOR TOLOSA LATOUR;Avenida de Cordoba-Ciudad Sanitaria 12 Octubre;Avenida de Cordoba;23/02/2021;02/03/2021;40.37956435;-3.697312028
12020369;C. DOCTOR TOLOSA LATOUR;Ciudad Sanitaria 12 Octubre-Avenida de los Poblados;Avenida de los Poblados;23/02/2021;02/03/2021;40.37191232;-3.703160152
12020370;C. DOCTOR TOLOSA LATOUR;Ciudad Sanitaria 12 Octubre-Avenida de los Poblados;Ciudad Sanitaria 12 Octubre;23/02/2021;02/03/2021;40.37188949;-3.703071189
12020373;Av. EDUARDO BARREIROS;Los Poblados (Av)-Los Rosales (Av);Los Poblados (Av);23/02/2021;02/03/2021;40.37024459;-3.696134067
12020374;Av. EDUARDO BARREIROS;Los Poblados (Av)-Los Rosales (Av);Los Rosales (Av);23/02/2021;02/03/2021;40.37025679;-3.696252015
12020708;Av. POBLADOS M-401;Eduardo Barreiros-Avenida Orcasur;Eduardo Barreiros;23/02/2021;02/03/2021;40.37090813;-3.698917484
12020709;Av. POBLADOS M-401;Eduardo Barreiros-Avenida Orcasur;Avenida Orcasur;23/02/2021;02/03/2021;40.37101665;-3.698905419
12020835;C. SIMON GONZALEZ;Antonio Lopez-Doctor Tolosa Latour;Antonio Lopez;23/02/2021;02/03/2021;40.37987942;-3.696480452
12021504;Av. POBLADOS, LOS M-401;Camino Rio-Avenida Orcasur;Avenida Orcasur;23/02/2021;02/03/2021;40.37099;-3.701452652
12021505;Av. POBLADOS, LOS M-401;Camino Rio-Avenida Orcasur;Camino Rio;23/02/2021;02/03/2021;40.37112799;-3.701443596
12021870;C. CONIFERAS;Eduardo Barreiros-De la Tuya;Eduardo Barreiros;24/02/2021;03/03/2021;40.36714388;-3.6965
12021871;C. CONIFERAS;Eduardo Barreiros-De la Tuya;De la Tuya;24/02/2021;03/03/2021;40.36697957;-3.696503955
12022463;  ROSALES. LOS M-301;Alerce-Avenida de Andalucia;Avenida de Andalucia;19/02/2021;26/02/2021;40.36895582;-3.694958454
12022464;  ROSALES. LOS M-301;Alerce-Avenida de Andalucia;Alerce;19/02/2021;26/02/2021;40.36904018;-3.694921501
12023241;  ORCASUR;Salvador Martnez-Plaza del Pueblo;Plaza del Pueblo;19/02/2021;26/02/2021;40.36724062;-3.70042248
12023242;  ORCASUR;Salvador Martnez-Plaza del Pueblo;Salvador Martnez;19/02/2021;26/02/2021;40.36725188;-3.700476884
12031990; C. ESTAFETA;Mezquita-Taconera;Mezquita;19/02/2021;26/02/2021;40.37320436;-3.69230475
12031991; C. ESTAFETA;Mezquita-Taconera;Taconera;19/02/2021;26/02/2021;40.37319849;-3.692409979
12032991;  FUEROS;Amaya-Zalacan;Zalacan;19/02/2021;26/02/2021;40.37039643;-3.68943
12032992;  FUEROS;Amaya-Zalacan;Amaya;19/02/2021;26/02/2021;40.37037;-3.68943
12033371; C. TORROX;Teba-Torcal;Torcal;19/02/2021;26/02/2021;40.36798386;-3.690566356
12040325;  CORDOBA;Glorieta de Cadiz-Hijas de Jesus;Glorieta de Cadiz;19/02/2021;26/02/2021;40.38713813;-3.698938265
12040326;  CORDOBA;Glorieta de Cadiz-Hijas de Jesus;Hijas de Jesus;19/02/2021;26/02/2021;40.38708828;-3.699158971
12040327;Carril bus  CORDOBA;Glorieta de Cadiz-Hijas de Jesus;Hijas de Jesus;19/02/2021;26/02/2021;40.38710821;-3.699071319
12040328;Carril bus  CORDOBA;Glorieta de Cadiz-Hijas de Jesus;Glorieta de Cadiz;19/02/2021;26/02/2021;40.38711717;-3.699039446
12040834; C. SIMON GONZALEZ;Antonio Lopez-Doctor Tolosa Latour;Doctor Tolosa Latour;19/02/2021;26/02/2021;40.38016445;-3.696550581
12050033; C. ANTONIO LOPEZ;Carmen Bruguera-Amparo Usera;Carmen Bruguera;19/02/2021;26/02/2021;40.38918189;-3.700536236
12050034; C. ANTONIO LOPEZ;Carmen Bruguera-Amparo Usera;Amparo Usera;19/02/2021;26/02/2021;40.38912106;-3.700620083
12050586; C. MARCELO USERA;Avenida Rafaela Ybarra-Gloriteta Fernandez Ladreda;Avenida Rafaela Ybarra;19/02/2021;26/02/2021;40.38510832;-3.71497529
12050587; C. MARCELO USERA;Avenida Rafaela Ybarra-Gloriteta Fernandez Ladreda;Gloriteta Fernandez Ladreda;19/02/2021;26/02/2021;40.38520948;-3.714968065
12050588; C. MARCELO USERA;Gabriel Usera-Isabelita Usera;Isabelita Usera;19/02/2021;26/02/2021;40.38552413;-3.708494581
12050589; C. MARCELO USERA;Gabriel Usera-Isabelita Usera;Gabriel Usera;19/02/2021;26/02/2021;40.38558374;-3.708501806
12051409; C. MARCELO USERA;Ferroviarios-Nicolas Usera;Ferroviarios;19/02/2021;26/02/2021;40.38589565;-3.705376409
12051410; C. MARCELO USERA;Ferroviarios-Nicolas Usera;Nicolas Usera;19/02/2021;26/02/2021;40.38593594;-3.705383846
12060742;  RAFAELA YBARRA;Fornillos-Verja;Verja;19/02/2021;26/02/2021;40.38239174;-3.711282839
12060743;  RAFAELA YBARRA;Fornillos-Verja;Fornillos;19/02/2021;26/02/2021;40.38238877;-3.711219806
12071892; C. CRISTO DE LA VICTORIA;Primitiva Ganan-Avenida Rafaela Ybarra;Primitiva Ganan;19/02/2021;26/02/2021;40.37876988;-3.711022812
12071893; C. CRISTO DE LA VICTORIA;Primitiva Ganan-Avenida Rafaela Ybarra;Avenida Rafaela Ybarra;19/02/2021;26/02/2021;40.37880137;-3.711021015
12071957; C. DOLORES BARRANCO;Mariano Vela-Avenida de Rafaela Ybarra;Avenida de Rafaela Ybarra;19/02/2021;26/02/2021;40.38279198;-3.710540884
12071958; C. DOLORES BARRANCO;Mariano Vela-Avenida de Rafaela Ybarra;Mariano Vela;19/02/2021;26/02/2021;40.38275457;-3.710533867
13010383; C. EMBAJADORES;M-30-Carretera de Villaverde Vallecas;Carretera de Villaverde Vallecas;19/02/2021;26/02/2021;40.37919364;-3.68424564
13010384; C. EMBAJADORES;M-30-Carretera de Villaverde Vallecas;M-30;19/02/2021;26/02/2021;40.37923729;-3.684151735
13010385;Lateral C. EMBAJADORES;M-30-Carretera de Villaverde Vallecas;M-30;19/02/2021;26/02/2021;40.37926076;-3.684103427
13010389;  ENTREVIAS;Mendez Alvaro-Timoteo Perez Rubio;Mendez Alvaro;19/02/2021;26/02/2021;40.39119093;-3.673596529
13010390;  ENTREVIAS;Mendez Alvaro-Timoteo Perez Rubio;Timoteo Perez Rubio;19/02/2021;26/02/2021;40.39111321;-3.67361449
13010391;  ENTREVIAS;Vedra-Villacarrillo;Villacarrillo;19/02/2021;26/02/2021;40.37728169;-3.662409154
13010392;  ENTREVIAS;Vedra-Villacarrillo;Vedra;19/02/2021;26/02/2021;40.37742017;-3.662321692
13011327; C. EMBAJADORES;M30-A-4;A-4;19/02/2021;26/02/2021;40.37845248;-3.683835502
13011328; C. EMBAJADORES;M30-A-4;M30;19/02/2021;26/02/2021;40.37851892;-3.683684854
13011333;  ENTREVIAS;La Mancha-Membezar;Membezar;19/02/2021;26/02/2021;40.38136509;-3.66850556
13011334;  ENTREVIAS;La Mancha-Membezar;La Mancha;19/02/2021;26/02/2021;40.38144118;-3.668372617
13012179; C. MANCHA. LA;Guadalcazar-Cardena;Cardena;19/02/2021;26/02/2021;40.38061217;-3.670117612
13012180; C. MANCHA. LA;Guadalcazar-Cardena;Guadalcazar;19/02/2021;26/02/2021;40.38058597;-3.670087418
13013141; C. LAGARTERA;Ruidera-Plaza de las Regiones;Ruidera;19/02/2021;26/02/2021;40.38153819;-3.67263558
13013142; C. LAGARTERA;Ruidera-Plaza de las Regiones;Plaza de las Regiones;19/02/2021;26/02/2021;40.38150898;-3.672667026
13013362; C. TAMARINDO;Retama-Kentia;Kentia;19/02/2021;26/02/2021;40.39571855;-3.674922015
13013418;Calle ARROYO DEL OLIVAR;Avenida de Buenos Aires-Ro Grande;Avenida de Buenos Aires;10/03/2021;17/03/2021;40.3883157;-3.652046426
13013419; C. ARROYO DEL OLIVAR;Avenida de Buenos Aires-Ro Grande;Rio Grande;19/02/2021;26/02/2021;40.38827533;-3.652041218
13020087;  ALBUFERA;M-30-Avenida del Monte Igueldo;Avenida del Monte Igueldo;19/02/2021;26/02/2021;40.39768252;-3.668082194
13020088;  ALBUFERA;M-30-Avenida del Monte Igueldo;M-30;19/02/2021;26/02/2021;40.39772902;-3.668052566
13020600;C. MARTINEZ DE LA RIVA;Monte Igueldo-Puerto Alto;Puerto Alto;24/02/2021;03/03/2021;40.39461916;-3.666776903
13020601;C. MARTINEZ DE LA RIVA;Sierra Carbonera-Javier de Miguel;Javier de Miguel;24/02/2021;03/03/2021;40.38947574;-3.664833935
13020602;C. MARTINEZ DE LA RIVA;Sierra Carbonera-Javier de Miguel;Sierra Carbonera;24/02/2021;03/03/2021;40.38948726;-3.664790581
13020781;Av. SAN DIEGO;Mariano Benlliure-Alfredo Castro Camba;Alfredo Castro Camba;24/02/2021;03/03/2021;40.38731797;-3.668852532
13020782;Av. SAN DIEGO;Mariano Benlliure-Alfredo Castro Camba;Mariano Benlliure;24/02/2021;03/03/2021;40.38735771;-3.668819
13021007;C. DOCTOR FERNANDO PRIMO DE RIVERA;Lomas de Horcajo-Avenida de La Albufera;Avenida de La Albufera;24/02/2021;03/03/2021;40.39578;-3.66577
13021143;Av. ALBUFERA;Puerto de Alcolea-Avenida del Monte Igueldo;Avenida del Monte Igueldo;24/02/2021;03/03/2021;40.39694624;-3.666551872
13021144;Av. ALBUFERA;Puerto de Alcolea-Avenida del Monte Igueldo;Puerto de Alcolea;24/02/2021;03/03/2021;40.39689409;-3.666592648
13021426;C. MARTINEZ DE LA RIVA;Carlos Martin Alvarez-Puerto de la Bonaigua;Puerto de la Bonaigua;24/02/2021;03/03/2021;40.38781235;-3.66435
13021427;C. MARTINEZ DE LA RIVA;Carlos Martin Alvarez-Puerto de la Bonaigua;Carlos Martin Alvarez;24/02/2021;03/03/2021;40.38782108;-3.664304178
13021544;Av. SAN DIEGO;Puerto Arlaban-Pena Atalaya;Puerto Arlaban;24/02/2021;03/03/2021;40.38608274;-3.667357041
13021545;Av. SAN DIEGO;Puerto Arlaban-Pena Atalaya;Pena Atalaya;24/02/2021;03/03/2021;40.38603787;-3.66740236
13021686;C. ARROYO DEL OLIVAR;Alcalde Alfonso Vazquez-Sierra Carbonera;Alcalde Alfonso Vazquez;25/02/2021;04/03/2021;40.39324669;-3.664250224
13021878; C. CONVENIO;M-30-Monte Igueldo;M-30;21/04/2021;28/04/2021;40.39037039;-3.671822225
13021879; C. CONVENIO;M-30-Monte Igueldo;Monte Igueldo;21/04/2021;28/04/2021;40.39036771;-3.671896041
13022246;Av. MONTE IGUELDO;Antonia Calas-Maria Bosch;Maria Bosch;25/02/2021;04/03/2021;40.39688;-3.66793
13022338;C. PICO DE JAVALON;Convenio-Mendez Alvaro;Convenio;25/02/2021;04/03/2021;40.39204102;-3.671245087
13022380;C. PUERTO DE BALBARAN;La Imagen-Vizconde de Arlesson;La Imagen;25/02/2021;04/03/2021;40.38238106;-3.668208351
13022381;C. PUERTO DE BALBARAN;La Imagen-Vizconde de Arlesson;Vizconde de Arlesson;25/02/2021;04/03/2021;40.38235207;-3.668279029
13022384;C. PUERTO DE BALBARAN;Puerto Arlaban-Pena Atalaya;Pena Atalaya;25/02/2021;04/03/2021;40.38375;-3.669437862
13022385;C. PUERTO DE BALBARAN;Puerto Arlaban-Pena Atalaya;Puerto Arlaban;25/02/2021;04/03/2021;40.3837997;-3.669307379
13030091;Av. ALBUFERA;Sierra del Cadi-Payaso Fofo;Payaso Fofo;25/02/2021;04/03/2021;40.39309503;-3.659392323
13030092;Av. ALBUFERA;Sierra del Cadi-Payaso Fofo;Sierra del Cadi;25/02/2021;04/03/2021;40.39314543;-3.659357343
13030095;Av. ALBUFERA;Teniente Munoz Diaz-Avenida de Buenos Aires;Avenida de Buenos Aires;25/02/2021;04/03/2021;40.39168536;-3.654866775
13030096;Av. ALBUFERA;Teniente Munoz Diaz-Avenida de Buenos Aires;Teniente Munoz Diaz;25/02/2021;04/03/2021;40.39167653;-3.654836735
13030191;Av. BUENOS AIRES;Avenida de La Albufera-Arroyo del Olivar;Arroyo del Olivar;25/02/2021;04/03/2021;40.39026551;-3.653398072
13030193;Av. BUENOS AIRES;La Diligencia-Cleopatra;Cleopatra;03/03/2021;10/03/2021;40.38279573;-3.653133957
13030194;Av. BUENOS AIRES;La Diligencia-Cleopatra;La Diligencia;02/03/2021;09/03/2021;40.38278712;-3.65285254
13030195;Av. BUENOS AIRES;Sabrina-Avenida Miguel Hernandez;Sabrina;02/03/2021;09/03/2021;40.37656496;-3.654057408
13030196;  BUENOS AIRES;Sabrina-Avenida Miguel Hernandez;Avenida Miguel Hernandez;02/03/2021;09/03/2021;40.37646028;-3.65400344
13030209; C. CANDILEJAS;Asamblea de Madrid (Pz)-Avenida Parque Palomeras Bajas;Asamblea de Madrid (Pz);01/03/2021;08/03/2021;40.38183756;-3.663989887
13030210;C. CANDILEJAS;Asamblea de Madrid (Pz)-Avenida Parque Palomeras Bajas;Avenida Parque Palomeras Bajas;01/03/2021;08/03/2021;40.3819963;-3.664159611
13030211;C. CANDILEJAS;Javier de Miguel-Luces de Bohemia;Javier de Miguel;01/03/2021;08/03/2021;40.38722231;-3.660581423
13030212;C. CANDILEJAS;Javier de Miguel-Luces de Bohemia;Sierra de la Sagra;01/03/2021;08/03/2021;40.38724168;-3.660628158
13030675;Av. PABLO NERUDA;Asamblea de Madrid (Pz)-El Padrino;El Padrino;01/03/2021;08/03/2021;40.38134032;-3.661327742
13030676;Av. PABLO NERUDA;Asamblea de Madrid (Pz)-El Padrino;Asamblea de Madrid (Pz);01/03/2021;08/03/2021;40.38153;-3.66134
13031084;C. PAYASO FOFO;Sierra Bermeja-Javier de Miguel;Sierra Bermeja;01/03/2021;08/03/2021;40.38857799;-3.659942803
13031085;C. PAYASO FOFO;Sierra Bermeja-Javier de Miguel;Javier de Miguel;01/03/2021;08/03/2021;40.38856;-3.66012
13031139;Av. ALBUFERA;Cantalapiedra-Payaso Fofo;Payaso Fofo;01/03/2021;08/03/2021;40.39222489;-3.657486766
13031140;Av. ALBUFERA;Cantalapiedra-Payaso Fofo;Cantalapiedra;01/03/2021;08/03/2021;40.39209;-3.65759
13031224;Av. BUENOS AIRES;Mogambo-Fantasia;Fantasia;01/03/2021;08/03/2021;40.37923813;-3.653031589
13031225;Av. BUENOS AIRES;Mogambo-Fantasia;Mogambo;01/03/2021;08/03/2021;40.37924331;-3.652773155
13031689;C. ARROYO DEL OLIVAR;Teniente Munoz Diaz-Alcala de Guadaira;Alcala de Guadaira;02/03/2021;09/03/2021;40.39019169;-3.65729263
13031690;C. ARROYO DEL OLIVAR;Teniente Munoz Diaz-Alcala de Guadaira;Teniente Munoz Diaz;02/03/2021;09/03/2021;40.39022607;-3.657262438
13031810;C. CARLOS MARTIN ALVAREZ;Sierra Bermeja-Martinez de la Riva;Sierra Bermeja;02/03/2021;09/03/2021;40.38857893;-3.664163799
13031811;C. CARLOS MARTIN ALVAREZ;Sierra Bermeja-Martinez de la Riva;Martinez de la Riva;02/03/2021;09/03/2021;40.38863;-3.66425
13032164;C LOS SANTOS INOCENTES;AVENIDA PABLO NERUDA-CALLE CLEOPATRA;AVENIDA PABLO NERUDA;02/03/2021;09/03/2021;40.38211448;-3.659701177
13032165;C LOS SANTOS INOCENTES;AVENIDA PABLO NERUDA-CALLE CLEOPATRA;CALLE CLEOPATRA;02/03/2021;09/03/2021;40.38212;-3.65952
13032312;Av. PALOMERAS;Javier de Miguel-Rafael San Narciso;Javier de Miguel;02/03/2021;09/03/2021;40.38761811;-3.656237579
13032313;Av. PALOMERAS;Javier de Miguel-Rafael San Narciso;Rafael San Narciso;02/03/2021;09/03/2021;40.38758702;-3.656248226
13032537;C. SIERRA CARBONERA;Martinez de la Riva-Arroyo del Olivar;Arroyo del Olivar;02/03/2021;09/03/2021;40.3928458;-3.663879885
13032618;C. VIRIDIANA;Fantasia-Mogambo;Fantasia;02/03/2021;09/03/2021;40.37913338;-3.655230353
13032619;C. VIRIDIANA;Fantasia-Mogambo;Mogambo;02/03/2021;09/03/2021;40.37912068;-3.655147834
13040081;Av. ALBUFERA;Avenida Rafael Alberti-M-40;Avenida Rafael Alberti;02/03/2021;09/03/2021;40.38613084;-3.637214484
13040082;Av. ALBUFERA;Avenida Rafael Alberti-M-40;M-40;02/03/2021;09/03/2021;40.38603268;-3.637259
13040083;Av. ALBUFERA;Avenida Rafael Alberti-Avenida Pablo Neruda;Avenida Rafael Alberti;02/03/2021;09/03/2021;40.38821745;-3.642235355
13040084;Av. ALBUFERA;Avenida Rafael Alberti-Avenida Pablo Neruda;Avenida Pablo Neruda;02/03/2021;09/03/2021;40.38831866;-3.642183542
13040089;Av. ALBUFERA;M-40-Avenida de La Democracia;Avenida de La Democracia;03/03/2021;10/03/2021;40.38375326;-3.632266104
13040090;Av. ALBUFERA;M-40-Avenida de La Democracia;M-40;03/03/2021;10/03/2021;40.3838307;-3.632225241
13040673;Av. PABLO NERUDA;Andaluces-Escala;Escala;03/03/2021;10/03/2021;40.39142994;-3.642295613
13040674;Av. PABLO NERUDA;Andaluces-Escala;Andaluces;03/03/2021;10/03/2021;40.39133368;-3.642060258
13040714;Av. POETA MIGUEL HERNANDEZ;Andaluces-Leon Felipe;Andaluces;03/03/2021;10/03/2021;40.38773671;-3.635260258
13040715;Av. POETA MIGUEL HERNANDEZ;Andaluces-Leon Felipe;Leon Felipe;03/03/2021;10/03/2021;40.38780535;-3.635383097
13040716;Av. POETA MIGUEL HERNANDEZ;Torremolinos-Asturianos;Torremolinos;03/03/2021;10/03/2021;40.38177523;-3.640842194
13040717;Av. POETA MIGUEL HERNANDEZ;Torremolinos-Asturianos;Asturianos;03/03/2021;10/03/2021;40.38187006;-3.640899097
13043283;Avenida RAFAEL ALBERTI;Asturianos-Extremeos;Extremeos;03/03/2021;10/03/2021;40.38372024;-3.643192586
13050093;Av. ALBUFERA;Sierra Faladora-Jose Paulete;Sierra Faladora;03/03/2021;10/03/2021;40.3912429;-3.650247419
13050094;Av. ALBUFERA;Sierra Faladora-Jose Paulete;Jose Paulete;03/03/2021;10/03/2021;40.39117328;-3.650253967
13050175;C. BENJAMIN PALENCIA;El Bosco-Pablo Neruda;El Bosco;03/03/2021;10/03/2021;40.39436319;-3.641779908
13050176;C. BENJAMIN PALENCIA;El Bosco-Pablo Neruda;Pablo Neruda;04/03/2021;11/03/2021;40.39423199;-3.641880187
13050177;C. BENJAMIN PALENCIA;Tossa-Humanes;Humanes;04/03/2021;11/03/2021;40.39466115;-3.648838053
13050178;C. BENJAMIN PALENCIA;Tossa-Humanes;Tossa;04/03/2021;11/03/2021;40.39463017;-3.648843215
13050192;Av. BUENOS AIRES;Avenida de La Albufera-Arroyo del Olivar;Avenida de La Albufera;04/03/2021;11/03/2021;40.3903;-3.65322
13050677;Av. PABLO NERUDA;Guillermo Pingarron-Palomeras (Av);Palomeras (Av);04/03/2021;11/03/2021;40.38603258;-3.646389161
13050678;Av. PABLO NERUDA;Guillermo Pingarron-Palomeras (Av);Guillermo Pingarron;04/03/2021;11/03/2021;40.38594265;-3.646202258
13050965;Av. Pablo Neruda;La Albufera (Av)-Arenas de Iguna;Arenas de Iguna;04/03/2021;11/03/2021;40.38955499;-3.643461446
13050966;Av. Pablo Neruda;La Albufera (Av)-Arenas de Iguna;La Albufera (Av);09/03/2021;16/03/2021;40.38967786;-3.643650241
13051086;C. PIO FELIPE;Jose Paulete-Benjamin Palencia;Benjamin Palencia;04/03/2021;11/03/2021;40.39483;-3.65229
13051087;C. PIO FELIPE;Jose Paulete-Benjamin Palencia;La Albufera;04/03/2021;11/03/2021;40.39493762;-3.652590281
13060085;Av. ALBUFERA;Calle del Puerto Pajares-Sierra Carbonera;Sierra Carbonera;04/03/2021;11/03/2021;40.3953921;-3.663749368
13060086;Av. ALBUFERA;Calle del Puerto Pajares-Sierra Carbonera;Calle del Puerto Pajares;04/03/2021;11/03/2021;40.39543813;-3.663703677
13060173;C BENJAMIN PALENCIA;CALLE PIO FELIPE-CALLE RAMON PEREZ AYALA;CALLE PIO FELIPE;09/03/2021;16/03/2021;40.39619495;-3.653282748
13060174; C. BENJAMIN PALENCIA;CALLE PIO FELIPE-CALLE RAMON PEREZ AYALA;CALLE RAMON PEREZ AYALA;09/03/2021;16/03/2021;40.39622354;-3.653258489
13061743;C. BOSCO;Maruja Garcia Romero-Ramon Perez de Ayala;Ramon Perez de Ayala;09/03/2021;16/03/2021;40.403034;-3.65293196
13061744;C. BOSCO;Maruja Garcia Romero-Ramon Perez de Ayala;Maruja Garcia Romero;09/03/2021;16/03/2021;40.40307486;-3.65285392
13061747;C. BOSCO, EL;Pio Felipe-Ramon Perez de Ayala;Pio Felipe;09/03/2021;16/03/2021;40.39930401;-3.648933631
13061748;C. BOSCO, EL;Pio Felipe-Ramon Perez de Ayala;Ramon Perez de Ayala;09/03/2021;16/03/2021;40.3993783;-3.64877755
13062214;C. MARUJA GARCIA ROMERO;Ramon Perez de Ayala-Baltasar Santos;Ramon Perez de Ayala;12/03/2021;18/03/2021;40.40092117;-3.654882064
13062215;C. MARUJA GARCIA ROMERO;Ramon Perez de Ayala-Baltasar Santos;Baltasar Santos;12/03/2021;18/03/2021;40.40100941;-3.654833784
13062393;C. RAMON PEREZ DE AYALA;Benjamin Palencia-El Bosco;El Bosco;12/03/2021;18/03/2021;40.39847781;-3.651890641
13062394;C. RAMON PEREZ DE AYALA;Benjamin Palencia-El Bosco;Benjamin Palencia;12/03/2021;18/03/2021;40.39852;-3.65195
13062546;C. SIERRA TOLEDANA;Sierra Elvira-El Bosco;Sierra Elvira;08/03/2021;15/03/2021;40.40501612;-3.659124636
13062547;C. SIERRA TOLEDANA;Sierra Elvira-El Bosco;El Bosco;08/03/2021;15/03/2021;40.40498388;-3.659064182
14010495;C. HACIENDA DE PAVONES, LA;Valdebernardo-Luis de Hoyos Sainz;Valdebernardo;08/03/2021;15/03/2021;40.39956962;-3.630845448
14010496;C. HACIENDA DE PAVONES, LA;Valdebernardo-Luis de Hoyos Sainz;Luis de Hoyos Sainz;08/03/2021;15/03/2021;40.39950658;-3.63086918
14010582;C. LUIS DE HOYOS SAINZ;Valdebernardo-Cairo;Cairo;08/03/2021;15/03/2021;40.40381194;-3.62855
14011405;C. LUIS DE HOYOS SAINZ;Templo-Tunez;Templo;08/03/2021;15/03/2021;40.40073035;-3.629050581
14011406;C. LUIS DE HOYOS SAINZ;Templo-Tunez;Tunez;08/03/2021;15/03/2021;40.40070706;-3.628996215
14011693;C. ARROYO FONTARRON;Encomienda de Palacios-Fuente Carrantona;Encomienda de Palacios;08/03/2021;15/03/2021;40.39485443;-3.636172132
14011694;C. ARROYO FONTARRON;Encomienda de Palacios-Fuente Carrantona;Fuente Carrantona;08/03/2021;15/03/2021;40.39495468;-3.63613623
14013051;Calle HACIENDA DE PAVONES;Fuente Carrantona-Luis Hoyos Sinz;Fuente Carrantona;08/03/2021;15/03/2021;40.40080015;-3.635543999
14013052;Calle HACIENDA DE PAVONES;Fuente Carrantona-Luis Hoyos Sinz;Luis Hoyos Sinz;08/03/2021;15/03/2021;40.40073178;-3.635580515
14020364;Av. DOCTOR GARCIA TAPIA;Costa Blanca-Rabat;Rabat;08/03/2021;15/03/2021;40.40686998;-3.628316095
14020365;Av. DOCTOR GARCIA TAPIA;Costa Blanca-Rabat;Costa Blanca;08/03/2021;15/03/2021;40.40707406;-3.62825551
14020583;C. LUIS DE HOYOS SAINZ;Valdebernardo-Cairo;Valdebernardo;08/03/2021;15/03/2021;40.40387206;-3.628540387
14021852;C. CIUDAD ENCANTADA;Ankara-Fuente Carrantona;Fuente Carrantona;08/03/2021;15/03/2021;40.41009481;-3.628344687
14021853;C. CIUDAD ENCANTADA;Ankara-Fuente Carrantona;Ankara;08/03/2021;15/03/2021;40.41005598;-3.628368229
14030201;C. CAMINO DE LOS VINATEROS;Arroyo Belincoso-Corregidor Senor de la Elipa;Corregidor Senor de la Elipa;08/03/2021;15/03/2021;40.41014265;-3.65187597
14030202;C. CAMINO DE LOS VINATEROS;Arroyo Belincoso-Corregidor Senor de la Elipa;Arroyo Belincoso;08/03/2021;15/03/2021;40.41025324;-3.651822594
14030442;C. FUENTE CARRANTONA;Avenida del Doctor Garcia Tapia-Eje O'Donnell;Avenida del Doctor Garcia Tapia;09/03/2021;16/03/2021;40.41245633;-3.628702071
14030443;C. FUENTE CARRANTONA;Avenida del Doctor Garcia Tapia-Eje O'Donnell;Eje O'Donnell;09/03/2021;16/03/2021;40.41239358;-3.62859151
14030688;C. PICO DE LOS ARTILLEROS;Plaza Corr. Licenciado Antonio de Mena-Mario Cabre;Plaza Corr. Licenciado Antonio de Mena;09/03/2021;16/03/2021;40.40660909;-3.63947021
14030689;C. PICO DE LOS ARTILLEROS;Plaza Corr. Licenciado Antonio de Mena-Mario Cabre;Mario Cabre;09/03/2021;16/03/2021;40.40660322;-3.639530907
14031345;C. FUENTE CARRANTONA;Eje O'Donnell-Avenida de Daroca;Eje O'Donnell;09/03/2021;16/03/2021;40.41525091;-3.62721747
14031452;Av. MORATALAZ;Plaza Corregidor Alonso de Tobar-Plaza Corr. Licenciado Antonio de Mena;Plaza Corregidor Alonso de Tobar;09/03/2021;16/03/2021;40.40894484;-3.643315279
14031678;C. ARROYO BELINCOSO;Camino Vinateros-Avenida Doctor Garcia Tapia;Avenida Doctor Garcia Tapia;09/03/2021;16/03/2021;40.41108772;-3.652095223
14031679;C. ARROYO BELINCOSO;Camino Vinateros-Avenida Doctor Garcia Tapia;Camino Vinateros;09/03/2021;16/03/2021;40.41111954;-3.652204906
14031683;C. ARROYO DE LAS PILILLAS;Arroyo de las Pilillas-Marroquina;Plaza Corregidor Sancho de Cordoba;09/03/2021;16/03/2021;40.40670106;-3.651682821
14032233;C MERIDA;PJE ANCHUELO-PJE TIELMES;PJE TIELMES;09/03/2021;16/03/2021;40.40578728;-3.636329239
14032234;C MERIDA;PJE ANCHUELO-PJE TIELMES;PJE ANCHUELO;09/03/2021;16/03/2021;40.40581514;-3.63628534
14040052;C. ARROYO DE LA MEDIA LEGUA;Camino Vinateros-Avenida Doctor Garcia Tapia;Camino Vinateros;10/03/2021;17/03/2021;40.41135471;-3.654910294
14040053;C. ARROYO DE LA MEDIA LEGUA;Camino Vinateros-Avenida Doctor Garcia Tapia;Avenida Doctor Garcia Tapia;10/03/2021;17/03/2021;40.41130935;-3.654866057
14040054;C. ARROYO DE LA MEDIA LEGUA;Corregidor Alonso de Aguilar (Pz.)-Camino Vinateros;Corregidor Alonso de Aguilar (Pz.);10/03/2021;17/03/2021;40.40781265;-3.657929942
14040055;C. ARROYO DE LA MEDIA LEGUA;Corregidor Alonso de Aguilar (Pz.)-Camino Vinateros;Camino Vinateros;10/03/2021;17/03/2021;40.40776542;-3.657861389
14040366;Av. DOCTOR GARCIA TAPIA;M30-Corregidor Diego Valderrabano;Corregidor Diego Valderrabano;10/03/2021;17/03/2021;40.41392755;-3.658486963
14040634;Av. MORATALAZ;Corregidor Diego Valderrabano-Plaza Corregidor Alonso de Aguilar;Corregidor Diego Valderrabano;10/03/2021;17/03/2021;40.4078371;-3.661390323
14040635;Av. MORATALAZ;Corregidor Diego Valderrabano-Plaza Corregidor Alonso de Aguilar;Plaza Corregidor Alonso de Aguilar;10/03/2021;17/03/2021;40.40777;-3.66141
14041682;C. ARROYO DE LAS PILILLAS;Arroyo de las Pilillas-Marroquina;Plaza del Encuentro;09/03/2021;16/03/2021;40.4066738;-3.651746662
14041884;C. CORREGIDOR DIEGO VALDERRABANO;Camino Vinateros-Doctor Garcia Tapia;Doctor Garcia Tapia;10/03/2021;17/03/2021;40.41286325;-3.657959045
14041885;C. CORREGIDOR DIEGO VALDERRABANO;Camino Vinateros-Doctor Garcia Tapia;Camino Vinateros;10/03/2021;17/03/2021;40.41286987;-3.658067329
14050444;Puente C. FUENTE CARRANTONA;Avenida Pablo Neruda-Arroyo Fontarron;Avenida Pablo Neruda;10/03/2021;17/03/2021;40.39515;-3.639976095
14050445;Puente C. FUENTE CARRANTONA;Avenida Pablo Neruda-Arroyo Fontarron;Arroyo Fontarron;10/03/2021;17/03/2021;40.39508127;-3.639781867
14050493;C. HACIENDA DE PAVONES, LA;Calle de la Canada-Corregidor Conde Maceda Taboada (Pz.);Corregidor Conde Maceda Taboada (Pz.);11/03/2021;18/03/2021;40.40330443;-3.644056078
14050494;C. HACIENDA DE PAVONES, LA;Calle de la Canada-Corregidor Conde Maceda Taboada (Pz.);Calle de la Canada;11/03/2021;18/03/2021;40.40335893;-3.644024212
14050636;Av. MORATALAZ;Plaza Corregidor Alonso de Aguilar-Plaza del Encuentro;Plaza del Encuentro;11/03/2021;18/03/2021;40.40661697;-3.656937578
14050637;Av. MORATALAZ;Plaza Corregidor Alonso de Aguilar-Plaza del Encuentro;Plaza Corregidor Alonso de Aguilar;11/03/2021;18/03/2021;40.40673212;-3.656917881
14050690;C. PICO DE LOS ARTILLEROS;Plaza Corregidor Conde Maceda Taboada-Encomienda de Palacios;Encomienda de Palacios;11/03/2021;18/03/2021;40.40208692;-3.643184757
14050691;C. PICO DE LOS ARTILLEROS;Plaza Corregidor Conde Maceda Taboada-Encomienda de Palacios;Plaza Corregidor Conde Maceda Taboada;11/03/2021;18/03/2021;40.40208105;-3.643137766
14050967;C. Fuente Carrantona;Encomienda de Palacios-Hacienda de Pavones;Hacienda de Pavones;11/03/2021;18/03/2021;40.39997123;-3.636758916
14050968;C. Fuente Carrantona;Encomienda de Palacios-Hacienda de Pavones;Encomienda de Palacios;11/03/2021;18/03/2021;40.40001749;-3.636853566
14051697;Lateral C. ARROYO FONTARRON;Plaza del Encuentro-Corregidor Juan Francisco de Lujan;Plaza del Encuentro;11/03/2021;18/03/2021;40.40505525;-3.651433
14051698;Lateral C. ARROYO FONTARRON;Plaza del Encuentro-Corregidor Juan Francisco de Lujan;Corregidor Juan Francisco de Lujan;11/03/2021;18/03/2021;40.40505525;-3.651497607
14051699;Tunel C. ARROYO FONTARRON;Plaza del Encuentro-Corregidor Juan Francisco de Lujan;Corregidor Juan Francisco de Lujan;11/03/2021;18/03/2021;40.40510631;-3.6515635
14060203; C. CAMINO DE LOS VINATEROS;La Canada-Pico Artilleros;Pico Artilleros;11/03/2021;18/03/2021;40.40569261;-3.642519363
14060204; C. CAMINO DE LOS VINATEROS;La Canada-Pico Artilleros;La Canada;11/03/2021;18/03/2021;40.40576672;-3.642433558
14060580;C. LUIS DE HOYOS SAINZ;Pico Artilleros-Fuente Carrantona;Pico Artilleros;11/03/2021;18/03/2021;40.40553084;-3.638617355
14060581;C. LUIS DE HOYOS SAINZ;Pico Artilleros-Fuente Carrantona;Fuente Carrantona;11/03/2021;18/03/2021;40.40550013;-3.638676968
14060632;  MORATALAZ;Avenida de Moratalaz-Plaza Corregidor Alonso de Tobar;Plaza Corregidor Alonso de Tobar;22/03/2021;29/03/2021;40.40747081;-3.646862742
14060633;  MORATALAZ;Avenida de Moratalaz-Plaza Corregidor Alonso de Tobar;Avenida de Moratalaz;22/03/2021;29/03/2021;40.40740984;-3.646832258
14061363; C. HACIENDA DE PAVONES. LA;Corregidor Conde Maceda Taboada (Pz.)-Fuente Carrantona;Fuente Carrantona;22/03/2021;29/03/2021;40.40266434;-3.642406511
14061364; C. HACIENDA DE PAVONES. LA;Corregidor Conde Maceda Taboada (Pz.)-Fuente Carrantona;Corregidor Conde Maceda Taboada (Pz.);22/03/2021;29/03/2021;40.4027453;-3.642333422
14061451;Av. MORATALAZ;Plaza Corregidor Alonso de Tobar-Plaza Corr. Licenciado Antonio de Mena;Plaza Corr. Licenciado Antonio de Mena;09/03/2021;16/03/2021;40.40889509;-3.643285048
14061493; C. PICO DE LOS ARTILLEROS;Camino de los Vinateros-Plaza Corregidor Conde Maceda Taboada;Camino de los Vinateros;22/03/2021;29/03/2021;40.40361076;-3.642723594
14061494; C. PICO DE LOS ARTILLEROS;Camino de los Vinateros-Plaza Corregidor Conde Maceda Taboada;Plaza Corregidor Conde Maceda Taboada;22/03/2021;29/03/2021;40.40365097;-3.642829201
15010114; C. ALCALA;Hermanos Machado-Jose Maria de Pereda;Hermanos Machado;22/03/2021;29/03/2021;40.43301999;-3.649109059
15010115; C. ALCALA;Hermanos Machado-Jose Maria de Pereda;Jose Maria de Pereda;22/03/2021;29/03/2021;40.43297;-3.6491
15010339;  DAROCA;Francisco Largo Caballero-Fuente Carrantona;Francisco Largo Caballero;22/03/2021;29/03/2021;40.41934341;-3.632349851
15010340; Av. DAROCA;Francisco Largo Caballero-Fuente Carrantona;Fuente Carrantona;22/03/2021;29/03/2021;40.4193;-3.63238
15010343;  DAROCA;Mateo Garcia-Altamira;Mateo Garcia;22/03/2021;29/03/2021;40.42932257;-3.65228044
15010344;  DAROCA;Mateo Garcia-Altamira;Altamira;22/03/2021;29/03/2021;40.42926858;-3.652300684
15010594;  MARQUES DE CORBERA;Avenida Daroca-Hermanos Gomez;Santa Prisca;22/03/2021;29/03/2021;40.42826113;-3.649128461
15010595;  MARQUES DE CORBERA;Avenida Daroca-Hermanos Gomez;Francisco Villaespesa;22/03/2021;29/03/2021;40.4282;-3.64902
15010596;Puente  MARQUES DE CORBERA;M-30-Ricardo Ortiz;Ricardo Ortiz;22/03/2021;29/03/2021;40.4214362;-3.658592672
15010597;Puente  MARQUES DE CORBERA;M-30-Ricardo Ortiz;M-30;22/03/2021;29/03/2021;40.42152691;-3.65858084
15011303;  DAROCA;Ignacio Ellacuria-Ramon Patuel;Ramon Patuel;22/03/2021;29/03/2021;40.42995445;-3.655955812
15012430; C. RICARDO ORTIZ;San Marcelo-San Emilio;San Maximiliano;22/03/2021;29/03/2021;40.42665321;-3.658109138
15012431; C. RICARDO ORTIZ;San Marcelo-San Emilio;San Marcelo;22/03/2021;29/03/2021;40.42665121;-3.657978693
15012591;  VENTAS;M-30-Daroca (Av);Daroca (Av);22/03/2021;29/03/2021;40.43139574;-3.659976599
15012592;  VENTAS;M-30-Daroca (Av);M-30;22/03/2021;29/03/2021;40.43154047;-3.659990564
15012956; C. FELIX RODRIGUEZ DE LA FUENTE;O Donnell-Jose Luis de Arrese;O Donnell;22/03/2021;29/03/2021;40.42099169;-3.65634731
15012957; C. FELIX RODRIGUEZ DE LA FUENTE;O Donnell-Jose Luis de Arrese;Jose Luis de Arrese;22/03/2021;29/03/2021;40.42095885;-3.656355401
15013424;  VENTAS;M-30-Daroca (Av);Daroca (Av);22/03/2021;29/03/2021;40.4314011;-3.65991055
15020113; C. ALCALA;Gutierre de Cetina-Emilio Ferrari;Emilio Ferrari;22/03/2021;29/03/2021;40.43474;-3.64458
15020140; C. ASCAO;Emilio Ferrari-Berastegui;Berastegui;22/03/2021;29/03/2021;40.42974741;-3.64199486
15020141; C. ASCAO;Emilio Ferrari-Berastegui;Emilio Ferrari;22/03/2021;29/03/2021;40.42962258;-3.641891601
15020142; C. ASCAO;Jose Arcones Gil-Luis Ruiz;Luis Ruiz;22/03/2021;29/03/2021;40.43143;-3.63793
15020341; Av. DAROCA;Francisco Largo Caballero-Fuente Carrantona;Francisco Largo Caballero;22/03/2021;29/03/2021;40.42229278;-3.637929074
15020342;  DAROCA;Francisco Largo Caballero-Fuente Carrantona;Francisco Largo Caballero;22/03/2021;29/03/2021;40.4223386;-3.63790016
15020428;Lateral C. FRANCISCO VILLAESPESA;Berastegui-Ezequiel Solana;Ezequiel Solana;22/03/2021;29/03/2021;40.42970751;-3.642810976
15020429; C. FRANCISCO VILLAESPESA;Berastegui-Ezequiel Solana;Ezequiel Solana;22/03/2021;29/03/2021;40.42956178;-3.642781866
15020430; C. FRANCISCO VILLAESPESA;Berastegui-Ezequiel Solana;Berastegui;22/03/2021;29/03/2021;40.42944223;-3.642779458
15020501; C. HERMANOS GARCIA NOBLEJAS;Alcala-Albasanz;Albasanz;23/03/2021;30/03/2021;40.43691471;-3.637448235
15020502; C. HERMANOS GARCIA NOBLEJAS;Alcala-Albasanz;Alcala;23/03/2021;30/03/2021;40.43702235;-3.637282941
15020503; C. HERMANOS GARCIA NOBLEJAS;Ascao-Santo Domingo Sabio;Santo Domingo Sabio;23/03/2021;30/03/2021;40.43181176;-3.633737059
15020504; C. HERMANOS GARCIA NOBLEJAS;Castillo de Ucles-Avenida de Arcentales;Avenida de Arcentales;23/03/2021;30/03/2021;40.42497588;-3.628792353
15021031;  FRANCISCO LARGO CABALLERO;Avenida Daroca-Nicolas Salmeron;Avenida Daroca;23/03/2021;30/03/2021;40.42330148;-3.63847828
15021032;  FRANCISCO LARGO CABALLERO;Avenida Daroca-Nicolas Salmeron;Nicolas Salmeron;23/03/2021;30/03/2021;40.42313;-3.63849
15021074; C. NICOLAS SALMERON;Francisco Largo Caballero-Alsacia (Pz.);Alsacia (Pz.);23/03/2021;30/03/2021;40.41769718;-3.625623688
15021075; C. NICOLAS SALMERON;Francisco Largo Caballero-Alsacia (Pz.);Francisco Largo Caballero;23/03/2021;30/03/2021;40.41776863;-3.625623509
15021340; C. FRANCISCO VILLAESPESA;Ezequiel Solana-Lago Constanza;Lago Constanza;23/03/2021;30/03/2021;40.42933524;-3.644564335
15021341; C. FRANCISCO VILLAESPESA;Ezequiel Solana-Lago Constanza;Ezequiel Solana;23/03/2021;30/03/2021;40.42924119;-3.644545027
15021344; C. FUENTE CARRANTONA;Eje ODonnell-Avenida de Daroca;Avenida de Daroca;23/03/2021;30/03/2021;40.41521273;-3.627021098
15021367; C. HERMANOS GARCIA NOBLEJAS;Emilio Munoz-Miguel Fleta;Emilio Munoz;23/03/2021;30/03/2021;40.43065552;-3.632926511
15021368; C. HERMANOS GARCIA NOBLEJAS;Emilio Munoz-Miguel Fleta;Miguel Fleta;23/03/2021;30/03/2021;40.4307415;-3.632713888
15021927; C. DE LOS COLLADOS;Calle de Ezequiel Solana-Calle de los Urquiza;Calle de los Urquiza;23/03/2021;30/03/2021;40.43236878;-3.645584557
15021928; C. DE LOS COLLADOS;Calle de Ezequiel Solana-Calle de los Urquiza;Calle de Ezequiel Solana;23/03/2021;30/03/2021;40.43242775;-3.645625572
15030062; C. ARTURO SORIA;Alcala-Jose del Hierro;Jose del Hierro;23/03/2021;30/03/2021;40.43938816;-3.639145278
15030112; C. ALCALA;Gutierre de Cetina-Emilio Ferrari;Gutierre de Cetina;22/03/2021;29/03/2021;40.43482776;-3.644653643
15030125; C. ARTURO SORIA;Alcala-Jose del Hierro;Alcala;23/03/2021;30/03/2021;40.43933167;-3.639267607
15030532; C. JOSE DEL HIERRO;Angel Larra-Florencio Garcia;Florencio Garcia;23/03/2021;30/03/2021;40.44068875;-3.64283875
15030533; C. JOSE DEL HIERRO;Angel Larra-Florencio Garcia;Angel Larra;23/03/2021;30/03/2021;40.44072313;-3.6428575
15032616; C. VIRGEN DEL LLUC;Hermanos de Pablo-Doctor Vallejo;Doctor Vallejo;23/03/2021;30/03/2021;40.43721668;-3.645236196
15040101; C. ALCALA;Angel Gonzalez Tejedor-Jose Villena;Angel Gonzalez Tejedor;23/03/2021;30/03/2021;40.43197998;-3.656548276
15040102; C. ALCALA;Angel Gonzalez Tejedor-Jose Villena;Jose Villena;23/03/2021;30/03/2021;40.43192893;-3.656541872
15040136; C. ARTURO SORIA;Marques de Portugalete-Fernandez Caro;Fernandez Caro;23/03/2021;30/03/2021;40.44479484;-3.645754619
15040137; C. ARTURO SORIA;Marques de Portugalete-Fernandez Caro;Marques de Portugalete;23/03/2021;30/03/2021;40.44494946;-3.645592384
15040534; C. JOSE DEL HIERRO;Virgen del Lluc-Virgen del Sagrario;Virgen del Lluc;23/03/2021;30/03/2021;40.436235;-3.650345
15040535; C. JOSE DEL HIERRO;Virgen del Lluc-Virgen del Sagrario;Virgen del Sagrario;23/03/2021;30/03/2021;40.436175;-3.6503075
15040886; C. VIRGEN DEL PORTILLO. LA;Jose del Hierro-Virgen del Sagrario;Virgen del Sagrario;23/03/2021;30/03/2021;40.43833543;-3.649246123
15041010;  DONOSTIARRA;Virgen de la Roca-Jose Banus (Pz.);Virgen de la Roca;05/04/2021;12/04/2021;40.43482857;-3.65738266
15041011;  DONOSTIARRA;Virgen de la Roca-Jose Banus (Pz.);Jose Banus (Pz.);05/04/2021;12/04/2021;40.43474578;-3.657409853
15041033; C. GENERAL ARANAZ;Maria Lombillo-Lopez de Aranda;Lopez de Aranda;24/03/2021;31/03/2021;40.44282;-3.6386
15041127; C. VIRGEN DE LA ALEGRIA;Raquel Meller-Plaza Jose Banus;Raquel Meller;23/03/2021;30/03/2021;40.43412;-3.65646
15041128; C. VIRGEN DE LA ALEGRIA;Raquel Meller-Plaza Jose Banus;Plaza Jose Banus;23/03/2021;30/03/2021;40.43407549;-3.656392807
15041386; C. JOSE DEL HIERRO;Hermanos de Pablo-Doctor Vallejo;Doctor Vallejo;24/03/2021;31/03/2021;40.43890983;-3.646194074
15041599; C. VIRGEN DEL PORTILLO. LA;Virgen del Sagrario-Virgen de la Alegria;Virgen de la Alegria;23/03/2021;30/03/2021;40.43737089;-3.651200497
15050138; C. ARTURO SORIA;Pilar Cavero-Angelita Cavero;Pilar Cavero;24/03/2021;31/03/2021;40.44568305;-3.647334515
15050139; C. ARTURO SORIA;Pilar Cavero-Angelita Cavero;Angelita Cavero;24/03/2021;31/03/2021;40.44576;-3.64721
15050161;  BADAJOZ;Torrelaguna-Aristoteles;Aristoteles;24/03/2021;31/03/2021;40.44303107;-3.65272566
15050162;  BADAJOZ;Torrelaguna-Aristoteles;Torrelaguna;24/03/2021;31/03/2021;40.44310113;-3.652799177
15050539; C. JOSEFA VALCARCEL;Arturo Soria-General Aranaz;General Aranaz;24/03/2021;31/03/2021;40.44839079;-3.648011036
15050540; C. JOSEFA VALCARCEL;Arturo Soria-General Aranaz;Arturo Soria;24/03/2021;31/03/2021;40.44842504;-3.64802874
15050854; C. TORRELAGUNA;Condesa de Venadito-Emilio Vargas;Condesa de Venadito;24/03/2021;31/03/2021;40.44577791;-3.655631163
15050855; C. TORRELAGUNA;Condesa de Venadito-Emilio Vargas;Emilio Vargas;24/03/2021;31/03/2021;40.44580395;-3.655570241
15050909; C. CONDESA DE VENADITO;Agastia-Torrelaguna;Torrelaguna;24/03/2021;31/03/2021;40.44519797;-3.652444859
15050910; C. CONDESA DE VENADITO;Agastia-Torrelaguna;Agastia;24/03/2021;31/03/2021;40.44516466;-3.652422144
15052083; C. HERNANDEZ DE TEJADA;Agastia-Arturo Soria;Arturo Soria;24/03/2021;31/03/2021;40.44726;-3.6507
15052477; C. SALVADOR DE MADARIAGA;Esteban Mora-Verdaguer y Garcia;Esteban Mora;24/03/2021;31/03/2021;40.43924254;-3.657049673
15052478; C. SALVADOR DE MADARIAGA;Esteban Mora-Verdaguer y Garcia;Verdaguer y Garcia;24/03/2021;31/03/2021;40.43923525;-3.656987632
15060132; C. ARTURO SORIA;Hernandez Rubin-Gregorio Benitez;Gregorio Benitez;24/03/2021;31/03/2021;40.44877378;-3.65061
15060133; C. ARTURO SORIA;Hernandez Rubin-Gregorio Benitez;Josefa Valcarcel;24/03/2021;31/03/2021;40.44867555;-3.650771715
15060852; C. TORRELAGUNA;Acceso M-30-Avenida de Ramon y Cajal;Acceso M-30;24/03/2021;31/03/2021;40.45304186;-3.660598373
15060853; C. TORRELAGUNA;Acceso M-30-Avenida de Ramon y Cajal;Avenida de Ramon y Cajal;24/03/2021;31/03/2021;40.45304186;-3.66051907
15060856; C. ULISES;Arturo Soria-Asura;Asura;24/03/2021;31/03/2021;40.45609761;-3.655761097
15061045; C. JOSE SILVA;Agastia-Arturo Soria;Arturo Soria;24/03/2021;31/03/2021;40.45525;-3.6574
15061197; C. ARTURO SORIA;Diego Ayllon-Estrecho de Mesina;Diego Ayllon;24/03/2021;31/03/2021;40.45143;-3.65292
15061198; C. ARTURO SORIA;Diego Ayllon-Estrecho de Mesina;Estrecho de Mesina;24/03/2021;31/03/2021;40.45149347;-3.652659333
15061581; C. TORRELAGUNA;Cidamon-Sorzano;Cidamon;24/03/2021;31/03/2021;40.45063164;-3.658884643
15061582; C. TORRELAGUNA;Cidamon-Sorzano;Sorzano;24/03/2021;31/03/2021;40.4506635;-3.658816584
15061939; C. DIEGO AYLLON;Asura-Arturo Soria;Arturo Soria;24/03/2021;31/03/2021;40.45172386;-3.650714722
15062066; C. GREGORIO BENITEZ;Asura-Arturo Soria;Arturo Soria;24/03/2021;31/03/2021;40.44985242;-3.649862156
15070134; C. ARTURO SORIA;Manuel Maranon-Belisana;Belisana;24/03/2021;31/03/2021;40.4568693;-3.657336141
15070135; C. ARTURO SORIA;Manuel Maranon-Belisana;Manuel Maranon;24/03/2021;31/03/2021;40.45681224;-3.657488872
15070576; C. LOPEZ DE HOYOS;Torrelaguna-Arturo Soria;Torrelaguna;24/03/2021;31/03/2021;40.45672986;-3.661002591
15070577; C. LOPEZ DE HOYOS;Torrelaguna-Arturo Soria;Arturo Soria;24/03/2021;31/03/2021;40.45670119;-3.660948117
15070857;Carril Bus C. ULISES;Arturo Soria-Asura;Arturo Soria;24/03/2021;31/03/2021;40.45617039;-3.655805935
15071044; C. JOSE SILVA;Agastia-Arturo Soria;Agastia;24/03/2021;31/03/2021;40.45532;-3.65762
15080126; C. ARTURO SORIA;Aleixandre-Manuel Uribe;Manuel Uribe;24/03/2021;31/03/2021;40.4635195;-3.66504225
15080127; C. ARTURO SORIA;Aleixandre-Manuel Uribe;Aleixandre;24/03/2021;31/03/2021;40.46350105;-3.665234419
15090128; C. ARTURO SORIA;Avenida de San Luis-La Dalia;Avenida de San Luis;05/04/2021;12/04/2021;40.47792689;-3.668914001
15090129; C. ARTURO SORIA;Avenida de San Luis-La Dalia;La Dalia;05/04/2021;12/04/2021;40.4779116;-3.668705817
15090130; C. ARTURO SORIA;Gomez de Hemans-Julio Danvila;Gomez de Hemans;06/04/2021;13/04/2021;40.4708795;-3.667315534
